% program   : RTKPOST ver.2.4.2
% inp file  : C:\Users\Jacque Fresco\Dropbox\PSN_2017\Projektni zadatak_PSN_2017\Dino Vukeliæ\Prikupljanje podataka\75 Dan\graz0750.14d
% inp file  : C:\Users\Jacque Fresco\Dropbox\PSN_2017\Projektni zadatak_PSN_2017\Dino Vukeliæ\Prikupljanje podataka\75 Dan\brdc0750.14n
% obs start : 2014/03/16 00:00:00.0 GPST (week1784      0.0s)
% obs end   : 2014/03/16 23:59:30.0 GPST (week1784  86370.0s)
% pos mode  : single
% elev mask : 15.0 deg
% ionos opt : off
% tropo opt : saastamoinen
% ephemeris : broadcast
%
% (lat/lon/height=WGS84/ellipsoidal.Q=1:fix.2:float.3:sbas.4:dgps.5:single.6:ppp.ns=# of satellites)
%  GPST                  latitude(deg) longitude(deg)  height(m)   Q  ns   sdn(m)   sde(m)   sdu(m)  sdne(m)  sdeu(m)  sdun(m) age(s)  ratio
2014/03/16 00:00:00.000   47.067140975   15.493487912   542.2033   5   5   9.4392   5.0136  13.0509   5.5007  -2.8577  -4.9533   0.00    0.0
2014/03/16 00:00:30.000   47.067141422   15.493493817   541.7037   5   5   9.4886   5.0199  13.0587   5.5224  -2.7668  -4.9203   0.00    0.0
2014/03/16 00:01:00.000   47.067141533   15.493496131   541.3693   5   5   9.5386   5.0265  13.0662   5.5444  -2.6721  -4.8864   0.00    0.0
2014/03/16 00:01:30.000   47.067138574   15.493494858   541.2142   5   5   9.5891   5.0335  13.0733   5.5668  -2.5732  -4.8515   0.00    0.0
2014/03/16 00:02:00.000   47.067134974   15.493491982   540.9787   5   5   9.6400   5.0409  13.0801   5.5896  -2.4695  -4.8157   0.00    0.0
2014/03/16 00:02:30.000   47.067134969   15.493491362   540.9318   5   5   9.6915   5.0488  13.0865   5.6128  -2.3606  -4.7789   0.00    0.0
2014/03/16 00:03:00.000   47.067132005   15.493489536   540.5768   5   5   9.7435   5.0571  13.0925   5.6364  -2.2456  -4.7411   0.00    0.0
2014/03/16 00:03:30.000   47.067129186   15.493485757   540.3315   5   5   9.7960   5.0657  13.0981   5.6604  -2.1236  -4.7023   0.00    0.0
2014/03/16 00:04:00.000   47.067132025   15.493485126   540.1642   5   5   9.8489   5.0748  13.1035   5.6848  -1.9933  -4.6625   0.00    0.0
2014/03/16 00:04:30.000   47.067132167   15.493483873   540.3485   5   5   9.9024   5.0843  13.1084   5.7095  -1.8531  -4.6216   0.00    0.0
2014/03/16 00:05:00.000   47.067131312   15.493482173   540.7446   5   5   9.9563   5.0942  13.1130   5.7346  -1.7004  -4.5797   0.00    0.0
2014/03/16 00:05:30.000   47.067125955   15.493476706   540.7504   5   5  10.0107   5.1044  13.1173   5.7601  -1.5316  -4.5368   0.00    0.0
2014/03/16 00:06:00.000   47.067146563   15.493487044   542.6996   5   6   6.7985   4.4378  12.4652   3.8204  -3.4956  -7.1131   0.00    0.0
2014/03/16 00:06:30.000   47.067146477   15.493488530   542.5678   5   6   6.7949   4.4312  12.4750   3.8012  -3.4291  -7.0976   0.00    0.0
2014/03/16 00:07:00.000   47.067147587   15.493489769   541.9912   5   6   6.7913   4.4249  12.4843   3.7818  -3.3608  -7.0817   0.00    0.0
2014/03/16 00:07:30.000   47.067147952   15.493488918   541.6767   5   6   6.7875   4.4189  12.4933   3.7624  -3.2904  -7.0653   0.00    0.0
2014/03/16 00:08:00.000   47.067148799   15.493488042   541.7944   5   6   6.7837   4.4131  12.5019   3.7429  -3.2179  -7.0483   0.00    0.0
2014/03/16 00:08:30.000   47.067148731   15.493487662   542.0130   5   6   6.7797   4.4077  12.5101   3.7234  -3.1432  -7.0309   0.00    0.0
2014/03/16 00:09:00.000   47.067146719   15.493487788   542.7719   5   6   6.7757   4.4025  12.5179   3.7038  -3.0660  -7.0130   0.00    0.0
2014/03/16 00:09:30.000   47.067143028   15.493490183   543.5526   5   6   6.7716   4.3977  12.5254   3.6841  -2.9863  -6.9946   0.00    0.0
2014/03/16 00:10:00.000   47.067142422   15.493493079   543.8237   5   6   6.7674   4.3932  12.5325   3.6645  -2.9038  -6.9757   0.00    0.0
2014/03/16 00:10:30.000   47.067143945   15.493494688   543.6400   5   6   6.7632   4.3890  12.5392   3.6448  -2.8183  -6.9563   0.00    0.0
2014/03/16 00:11:00.000   47.067144849   15.493494928   543.4152   5   6   6.7589   4.3851  12.5456   3.6250  -2.7295  -6.9365   0.00    0.0
2014/03/16 00:11:30.000   47.067144239   15.493493472   543.1467   5   6   6.7545   4.3816  12.5517   3.6053  -2.6372  -6.9162   0.00    0.0
2014/03/16 00:12:00.000   47.067141932   15.493491556   542.9494   5   6   6.7501   4.3784  12.5574   3.5855  -2.5410  -6.8955   0.00    0.0
2014/03/16 00:12:30.000   47.067140055   15.493488546   542.7414   5   6   6.7457   4.3756  12.5629   3.5658  -2.4403  -6.8743   0.00    0.0
2014/03/16 00:13:00.000   47.067136081   15.493484826   542.6533   5   6   6.7412   4.3731  12.5680   3.5460  -2.3348  -6.8527   0.00    0.0
2014/03/16 00:13:30.000   47.067136491   15.493483866   542.8175   5   6   6.7367   4.3710  12.5728   3.5263  -2.2236  -6.8306   0.00    0.0
2014/03/16 00:14:00.000   47.067137009   15.493486781   543.0474   5   6   6.7322   4.3692  12.5773   3.5066  -2.1060  -6.8082   0.00    0.0
2014/03/16 00:14:30.000   47.067140718   15.493488469   542.6144   5   6   6.7277   4.3678  12.5815   3.4870  -1.9808  -6.7853   0.00    0.0
2014/03/16 00:15:00.000   47.067141753   15.493489307   543.0020   5   7   6.1560   4.1910   9.9580   3.9163  -3.5845  -4.9923   0.00    0.0
2014/03/16 00:15:30.000   47.067140190   15.493487761   543.0860   5   7   6.1544   4.1833   9.9578   3.9060  -3.5388  -4.9644   0.00    0.0
2014/03/16 00:16:00.000   47.067138445   15.493486090   543.4506   5   7   6.1528   4.1758   9.9575   3.8958  -3.4923  -4.9362   0.00    0.0
2014/03/16 00:16:30.000   47.067137443   15.493485729   543.7233   5   7   6.1514   4.1685   9.9573   3.8856  -3.4449  -4.9076   0.00    0.0
2014/03/16 00:17:00.000   47.067136020   15.493484772   543.1290   5   7   6.1500   4.1614   9.9570   3.8756  -3.3968  -4.8787   0.00    0.0
2014/03/16 00:17:30.000   47.067138065   15.493483736   542.1808   5   7   6.1488   4.1545   9.9568   3.8657  -3.3478  -4.8495   0.00    0.0
2014/03/16 00:18:00.000   47.067136969   15.493485032   542.3400   5   7   6.1475   4.1478   9.9565   3.8559  -3.2979  -4.8199   0.00    0.0
2014/03/16 00:18:30.000   47.067133177   15.493484721   542.8328   5   7   6.1464   4.1414   9.9563   3.8462  -3.2470  -4.7901   0.00    0.0
2014/03/16 00:19:00.000   47.067130797   15.493484883   543.1860   5   7   6.1454   4.1352   9.9561   3.8367  -3.1952  -4.7599   0.00    0.0
2014/03/16 00:19:30.000   47.067130136   15.493484560   543.5951   5   7   6.1444   4.1292   9.9559   3.8272  -3.1423  -4.7294   0.00    0.0
2014/03/16 00:20:00.000   47.067134683   15.493486193   543.5934   5   7   6.1436   4.1234   9.9557   3.8179  -3.0884  -4.6986   0.00    0.0
2014/03/16 00:20:30.000   47.067137398   15.493487762   543.3427   5   7   6.1428   4.1179   9.9556   3.8087  -3.0333  -4.6675   0.00    0.0
2014/03/16 00:21:00.000   47.067139247   15.493488643   543.3203   5   7   6.1422   4.1126   9.9555   3.7997  -2.9771  -4.6360   0.00    0.0
2014/03/16 00:21:30.000   47.067136861   15.493489304   543.6188   5   7   6.1416   4.1076   9.9554   3.7907  -2.9197  -4.6043   0.00    0.0
2014/03/16 00:22:00.000   47.067134017   15.493488744   544.0470   5   7   6.1411   4.1027   9.9554   3.7820  -2.8609  -4.5723   0.00    0.0
2014/03/16 00:22:30.000   47.067135119   15.493488665   543.8809   5   7   6.1408   4.0982   9.9554   3.7733  -2.8007  -4.5399   0.00    0.0
2014/03/16 00:23:00.000   47.067136013   15.493488565   543.9643   5   7   6.1405   4.0939   9.9555   3.7648  -2.7391  -4.5073   0.00    0.0
2014/03/16 00:23:30.000   47.067136014   15.493490484   544.0336   5   7   6.1403   4.0898   9.9556   3.7564  -2.6759  -4.4744   0.00    0.0
2014/03/16 00:24:00.000   47.067140562   15.493494506   543.4416   5   7   6.1402   4.0860   9.9558   3.7482  -2.6111  -4.4411   0.00    0.0
2014/03/16 00:24:30.000   47.067141282   15.493494595   543.2921   5   7   6.1403   4.0825   9.9560   3.7402  -2.5444  -4.4076   0.00    0.0
2014/03/16 00:25:00.000   47.067137809   15.493490144   543.1206   5   7   6.1404   4.0792   9.9563   3.7322  -2.4759  -4.3738   0.00    0.0
2014/03/16 00:25:30.000   47.067134980   15.493486262   543.2511   5   7   6.1407   4.0761   9.9567   3.7245  -2.4052  -4.3397   0.00    0.0
2014/03/16 00:26:00.000   47.067136256   15.493485799   543.2888   5   7   6.1410   4.0734   9.9571   3.7168  -2.3323  -4.3053   0.00    0.0
2014/03/16 00:26:30.000   47.067136844   15.493485398   542.8120   5   7   6.1415   4.0709   9.9576   3.7094  -2.2568  -4.2706   0.00    0.0
2014/03/16 00:27:00.000   47.067137023   15.493485542   542.8415   5   7   6.1421   4.0686   9.9581   3.7020  -2.1787  -4.2357   0.00    0.0
2014/03/16 00:27:30.000   47.067134974   15.493483897   542.8562   5   7   6.1427   4.0666   9.9588   3.6949  -2.0975  -4.2005   0.00    0.0
2014/03/16 00:28:00.000   47.067133730   15.493480765   542.5960   5   7   6.1435   4.0649   9.9595   3.6879  -2.0129  -4.1650   0.00    0.0
2014/03/16 00:28:30.000   47.067134112   15.493479325   542.5720   5   7   6.1444   4.0634   9.9602   3.6810  -1.9244  -4.1292   0.00    0.0
2014/03/16 00:29:00.000   47.067136264   15.493484016   542.2692   5   7   6.1454   4.0623   9.9611   3.6743  -1.8316  -4.0931   0.00    0.0
2014/03/16 00:29:30.000   47.067138557   15.493490075   542.2847   5   7   6.1465   4.0613   9.9620   3.6677  -1.7337  -4.0569   0.00    0.0
2014/03/16 00:30:00.000   47.067138752   15.493492917   542.7423   5   7   6.1477   4.0607   9.9630   3.6613  -1.6298  -4.0203   0.00    0.0
2014/03/16 00:30:30.000   47.067139019   15.493492380   543.4370   5   7   6.1490   4.0603   9.9640   3.6551  -1.5188  -3.9835   0.00    0.0
2014/03/16 00:31:00.000   47.067137719   15.493492705   543.8825   5   7   6.1504   4.0602   9.9652   3.6490  -1.3988  -3.9464   0.00    0.0
2014/03/16 00:31:30.000   47.067137758   15.493492217   543.9345   5   7   6.1519   4.0603   9.9664   3.6430  -1.2674  -3.9091   0.00    0.0
2014/03/16 00:32:00.000   47.067139984   15.493494123   543.5044   5   7   6.1536   4.0608   9.9677   3.6372  -1.1207  -3.8716   0.00    0.0
2014/03/16 00:32:30.000   47.067141875   15.493497643   543.0624   5   7   6.1553   4.0615   9.9690   3.6315  -0.9514  -3.8338   0.00    0.0
2014/03/16 00:33:00.000   47.067140391   15.493497106   542.9833   5   7   6.1571   4.0624   9.9704   3.6260  -0.7446  -3.7958   0.00    0.0
2014/03/16 00:33:30.000   47.067136874   15.493490815   543.2821   5   7   6.1590   4.0636   9.9719   3.6206  -0.4511  -3.7575   0.00    0.0
2014/03/16 00:34:00.000   47.067134299   15.493485052   543.4854   5   7   6.1610   4.0651   9.9735   3.6153   0.3841  -3.7191   0.00    0.0
2014/03/16 00:34:30.000   47.067132988   15.493483585   543.3467   5   7   6.1631   4.0669   9.9752   3.6102   0.7061  -3.6804   0.00    0.0
2014/03/16 00:35:00.000   47.067133704   15.493485523   543.3433   5   7   6.1653   4.0689   9.9769   3.6052   0.9217  -3.6415   0.00    0.0
2014/03/16 00:35:30.000   47.067134176   15.493487183   543.6226   5   7   6.1676   4.0712   9.9786   3.6003   1.0957  -3.6025   0.00    0.0
2014/03/16 00:36:00.000   47.067133259   15.493485812   543.8574   5   7   6.1700   4.0737   9.9804   3.5956   1.2456  -3.5632   0.00    0.0
2014/03/16 00:36:30.000   47.067134623   15.493486416   543.5887   5   7   6.1724   4.0765   9.9823   3.5910   1.3792  -3.5238   0.00    0.0
2014/03/16 00:37:00.000   47.067137220   15.493488552   542.8876   5   7   6.1749   4.0795   9.9843   3.5865   1.5009  -3.4842   0.00    0.0
2014/03/16 00:37:30.000   47.067139542   15.493490315   542.8336   5   6   8.1479   7.1031  17.6512   6.6115  -9.0552  -9.4441   0.00    0.0
2014/03/16 00:38:00.000   47.067140133   15.493491626   542.9069   5   6   8.0835   7.0363  17.6574   6.5304  -8.9696  -9.3519   0.00    0.0
2014/03/16 00:38:30.000   47.067139015   15.493490771   543.2222   5   6   8.0205   6.9708  17.6664   6.4504  -8.8850  -9.2604   0.00    0.0
2014/03/16 00:39:00.000   47.067138481   15.493489412   543.6794   5   6   7.9589   6.9066  17.6783   6.3716  -8.8013  -9.1698   0.00    0.0
2014/03/16 00:39:30.000   47.067138303   15.493487904   543.5768   5   6   7.8988   6.8436  17.6930   6.2938  -8.7186  -9.0798   0.00    0.0
2014/03/16 00:40:00.000   47.067134403   15.493486115   543.4586   5   6   7.8399   6.7818  17.7106   6.2171  -8.6367  -8.9905   0.00    0.0
2014/03/16 00:40:30.000   47.067133331   15.493485296   542.9181   5   6   7.7825   6.7212  17.7311   6.1415  -8.5557  -8.9018   0.00    0.0
2014/03/16 00:41:00.000   47.067135010   15.493486326   542.0015   5   6   7.7263   6.6618  17.7545   6.0669  -8.4755  -8.8136   0.00    0.0
2014/03/16 00:41:30.000   47.067137859   15.493487727   541.6375   5   6   7.6715   6.6035  17.7808   5.9932  -8.3960  -8.7259   0.00    0.0
2014/03/16 00:42:00.000   47.067138046   15.493490244   541.5714   5   6   7.6179   6.5463  17.8101   5.9206  -8.3172  -8.6387   0.00    0.0
2014/03/16 00:42:30.000   47.067138471   15.493491364   541.6731   5   6   7.5656   6.4902  17.8423   5.8489  -8.2391  -8.5519   0.00    0.0
2014/03/16 00:43:00.000   47.067139080   15.493492462   541.5754   5   6   7.5145   6.4352  17.8775   5.7781  -8.1616  -8.4655   0.00    0.0
2014/03/16 00:43:30.000   47.067138782   15.493491040   541.6309   5   6   7.4647   6.3813  17.9156   5.7082  -8.0847  -8.3793   0.00    0.0
2014/03/16 00:44:00.000   47.067142413   15.493491971   541.3977   5   6   7.4161   6.3284  17.9568   5.6392  -8.0083  -8.2934   0.00    0.0
2014/03/16 00:44:30.000   47.067143200   15.493492505   541.3931   5   6   7.3687   6.2766  18.0011   5.5711  -7.9324  -8.2076   0.00    0.0
2014/03/16 00:45:00.000   47.067142451   15.493492124   541.7800   5   6   7.3224   6.2257  18.0484   5.5038  -7.8570  -8.1219   0.00    0.0
2014/03/16 00:45:30.000   47.067140897   15.493490731   542.7513   5   6   7.2773   6.1759  18.0988   5.4373  -7.7820  -8.0363   0.00    0.0
2014/03/16 00:46:00.000   47.067139471   15.493489672   543.3831   5   6   7.2334   6.1270  18.1523   5.3716  -7.7073  -7.9507   0.00    0.0
2014/03/16 00:46:30.000   47.067141018   15.493488384   543.7315   5   6   7.1906   6.0790  18.2091   5.3067  -7.6329  -7.8650   0.00    0.0
2014/03/16 00:47:00.000   47.067141672   15.493488425   544.2899   5   6   7.1490   6.0320  18.2690   5.2426  -7.5588  -7.7792   0.00    0.0
2014/03/16 00:47:30.000   47.067141149   15.493489379   544.5196   5   6   7.1084   5.9859  18.3321   5.1792  -7.4848  -7.6931   0.00    0.0
2014/03/16 00:48:00.000   47.067142240   15.493489910   544.1214   5   6   7.0690   5.9407  18.3985   5.1166  -7.4110  -7.6067   0.00    0.0
2014/03/16 00:48:30.000   47.067140743   15.493491282   543.0587   5   6   7.0306   5.8965  18.4683   5.0546  -7.3373  -7.5200   0.00    0.0
2014/03/16 00:49:00.000   47.067142545   15.493492568   542.6968   5   6   6.9934   5.8531  18.5414   4.9934  -7.2636  -7.4327   0.00    0.0
2014/03/16 00:49:30.000   47.067142169   15.493490312   542.8660   5   6   6.9572   5.8105  18.6178   4.9329  -7.1899  -7.3450   0.00    0.0
2014/03/16 00:50:00.000   47.067140266   15.493485885   543.1098   5   6   6.9220   5.7689  18.6978   4.8730  -7.1160  -7.2566   0.00    0.0
2014/03/16 00:50:30.000   47.067136321   15.493483268   543.7284   5   6   6.8879   5.7280  18.7812   4.8138  -7.0420  -7.1674   0.00    0.0
2014/03/16 00:51:00.000   47.067133066   15.493481790   543.9816   5   6   6.8549   5.6880  18.8681   4.7553  -6.9678  -7.0774   0.00    0.0
2014/03/16 00:51:30.000   47.067131277   15.493483321   543.9885   5   6   6.8229   5.6489  18.9586   4.6973  -6.8932  -6.9864   0.00    0.0
2014/03/16 00:52:00.000   47.067129931   15.493482823   543.7800   5   6   6.7919   5.6105  19.0527   4.6401  -6.8183  -6.8944   0.00    0.0
2014/03/16 00:52:30.000   47.067132450   15.493485200   542.9609   5   6   6.7619   5.5730  19.1506   4.5834  -6.7429  -6.8012   0.00    0.0
2014/03/16 00:53:00.000   47.067134866   15.493487296   541.8972   5   6   6.7330   5.5362  19.2521   4.5273  -6.6669  -6.7067   0.00    0.0
2014/03/16 00:53:30.000   47.067137876   15.493492004   540.9508   5   6   6.7051   5.5002  19.3575   4.4718  -6.5903  -6.6107   0.00    0.0
2014/03/16 00:54:00.000   47.067140179   15.493494561   541.4207   5   6   6.6782   5.4650  19.4667   4.4170  -6.5129  -6.5131   0.00    0.0
2014/03/16 00:54:30.000   47.067139762   15.493497173   541.3958   5   6   6.6523   5.4306  19.5798   4.3627  -6.4347  -6.4138   0.00    0.0
2014/03/16 00:55:00.000   47.067140035   15.493496647   541.0206   5   6   6.6274   5.3970  19.6969   4.3090  -6.3555  -6.3125   0.00    0.0
2014/03/16 00:55:30.000   47.067142202   15.493496649   539.4497   5   6   6.6035   5.3641  19.8181   4.2558  -6.2752  -6.2090   0.00    0.0
2014/03/16 00:56:00.000   47.067143873   15.493493506   539.2604   5   6   6.5806   5.3319  19.9433   4.2033  -6.1938  -6.1033   0.00    0.0
2014/03/16 00:56:30.000   47.067142114   15.493489984   540.2389   5   6   6.5587   5.3005  20.0727   4.1513  -6.1110  -5.9949   0.00    0.0
2014/03/16 00:57:00.000   47.067138120   15.493488579   545.0010   5   7   6.3543   5.2699  12.8025   4.1014  -6.0374  -3.2519   0.00    0.0
2014/03/16 00:57:30.000   47.067137738   15.493488649   545.2267   5   7   6.3437   5.2398  12.8446   4.0575  -6.0014  -3.1105   0.00    0.0
2014/03/16 00:58:00.000   47.067138692   15.493487330   545.4330   5   7   6.3340   5.2102  12.8884   4.0139  -5.9657  -2.9619   0.00    0.0
2014/03/16 00:58:30.000   47.067137319   15.493485739   545.8278   5   7   6.3251   5.1811  12.9337   3.9707  -5.9304  -2.8049   0.00    0.0
2014/03/16 00:59:00.000   47.067138356   15.493485277   546.4430   5   7   6.3171   5.1524  12.9807   3.9279  -5.8954  -2.6379   0.00    0.0
2014/03/16 00:59:30.000   47.067137152   15.493484051   546.9056   5   7   6.3099   5.1242  13.0292   3.8854  -5.8606  -2.4589   0.00    0.0
2014/03/16 01:00:00.000   47.067133190   15.493480530   546.7591   5   7   6.3035   5.0964  13.0794   3.8433  -5.8261  -2.2649   0.00    0.0
2014/03/16 01:00:30.000   47.067131838   15.493478403   546.6898   5   7   6.2980   5.0690  13.1312   3.8014  -5.7919  -2.0516   0.00    0.0
2014/03/16 01:01:00.000   47.067131062   15.493477952   546.1878   5   7   6.2934   5.0421  13.1846   3.7600  -5.7579  -1.8119   0.00    0.0
2014/03/16 01:01:30.000   47.067129745   15.493478969   545.7461   5   7   6.2895   5.0155  13.2397   3.7188  -5.7241  -1.5335   0.00    0.0
2014/03/16 01:02:00.000   47.067130644   15.493479682   545.1884   5   7   6.2865   4.9894  13.2963   3.6780  -5.6905  -1.1892   0.00    0.0
2014/03/16 01:02:30.000   47.067131794   15.493480319   544.6319   5   7   6.2844   4.9637  13.3546   3.6374  -5.6570  -0.6861   0.00    0.0
2014/03/16 01:03:00.000   47.067133706   15.493480203   544.7800   5   7   6.2830   4.9384  13.4145   3.5972  -5.6237   0.6923   0.00    0.0
2014/03/16 01:03:30.000   47.067134917   15.493479966   545.3971   5   7   6.2825   4.9135  13.4760   3.5573  -5.5906   1.1985   0.00    0.0
2014/03/16 01:04:00.000   47.067135974   15.493480840   545.8153   5   7   6.2828   4.8889  13.5391   3.5177  -5.5575   1.5495   0.00    0.0
2014/03/16 01:04:30.000   47.067135801   15.493482250   545.4535   5   7   6.2839   4.8648  13.6038   3.4785  -5.5245   1.8366   0.00    0.0
2014/03/16 01:05:00.000   47.067134859   15.493484568   544.5807   5   7   6.2859   4.8410  13.6702   3.4395  -5.4916   2.0864   0.00    0.0
2014/03/16 01:05:30.000   47.067135011   15.493485356   544.3928   5   7   6.2886   4.8176  13.7381   3.4008  -5.4587   2.3113   0.00    0.0
2014/03/16 01:06:00.000   47.067136610   15.493483068   544.4951   5   7   6.2921   4.7945  13.8077   3.3624  -5.4258   2.5178   0.00    0.0
2014/03/16 01:06:30.000   47.067134285   15.493482441   544.1134   5   7   6.2965   4.7718  13.8788   3.3244  -5.3929   2.7103   0.00    0.0
2014/03/16 01:07:00.000   47.067135560   15.493482114   544.5108   5   7   6.3016   4.7495  13.9515   3.2866  -5.3599   2.8917   0.00    0.0
2014/03/16 01:07:30.000   47.067136671   15.493483039   544.4468   5   7   6.3076   4.7275  14.0257   3.2492  -5.3269   3.0639   0.00    0.0
2014/03/16 01:08:00.000   47.067134899   15.493483039   544.6674   5   7   6.3143   4.7058  14.1015   3.2120  -5.2938   3.2285   0.00    0.0
2014/03/16 01:08:30.000   47.067134620   15.493484629   544.7347   5   7   6.3218   4.6845  14.1789   3.1752  -5.2605   3.3865   0.00    0.0
2014/03/16 01:09:00.000   47.067134769   15.493487134   544.3991   5   7   6.3300   4.6635  14.2577   3.1387  -5.2271   3.5390   0.00    0.0
2014/03/16 01:09:30.000   47.067135785   15.493486704   544.3480   5   7   6.3391   4.6428  14.3381   3.1026  -5.1934   3.6866   0.00    0.0
2014/03/16 01:10:00.000   47.067136680   15.493487013   544.1797   5   7   6.3489   4.6225  14.4199   3.0667  -5.1595   3.8300   0.00    0.0
2014/03/16 01:10:30.000   47.067137159   15.493488603   544.2024   5   7   6.3594   4.6025  14.5031   3.0312  -5.1254   3.9695   0.00    0.0
2014/03/16 01:11:00.000   47.067136522   15.493490727   544.0249   5   7   6.3707   4.5828  14.5878   2.9961  -5.0910   4.1056   0.00    0.0
2014/03/16 01:11:30.000   47.067136490   15.493491578   543.9053   5   7   6.3827   4.5634  14.6738   2.9613  -5.0562   4.2387   0.00    0.0
2014/03/16 01:12:00.000   47.067137582   15.493491621   543.4481   5   7   6.3954   4.5444  14.7612   2.9269  -5.0210   4.3690   0.00    0.0
2014/03/16 01:12:30.000   47.067137241   15.493492271   543.2892   5   7   6.4089   4.5256  14.8499   2.8928  -4.9854   4.4967   0.00    0.0
2014/03/16 01:13:00.000   47.067137513   15.493492631   543.7999   5   7   6.4230   4.5071  14.9399   2.8592  -4.9493   4.6221   0.00    0.0
2014/03/16 01:13:30.000   47.067137527   15.493490786   545.0184   5   7   6.4378   4.4890  15.0310   2.8259  -4.9128   4.7453   0.00    0.0
2014/03/16 01:14:00.000   47.067137503   15.493487489   545.9085   5   7   6.4533   4.4711  15.1234   2.7931  -4.8756   4.8665   0.00    0.0
2014/03/16 01:14:30.000   47.067138334   15.493485981   546.2561   5   7   6.4694   4.4536  15.2168   2.7607  -4.8379   4.9858   0.00    0.0
2014/03/16 01:15:00.000   47.067137236   15.493486733   545.4724   5   7   6.4861   4.4363  15.3113   2.7288  -4.7995   5.1033   0.00    0.0
2014/03/16 01:15:30.000   47.067139140   15.493488278   545.6308   5   7   6.5035   4.4194  15.4067   2.6973  -4.7604   5.2191   0.00    0.0
2014/03/16 01:16:00.000   47.067140795   15.493491301   545.7043   5   7   6.5215   4.4027  15.5031   2.6663  -4.7205   5.3333   0.00    0.0
2014/03/16 01:16:30.000   47.067143293   15.493495429   545.8265   5   7   6.5400   4.3864  15.6003   2.6358  -4.6799   5.4459   0.00    0.0
2014/03/16 01:17:00.000   47.067143744   15.493497077   545.8472   5   7   6.5591   4.3703  15.6983   2.6059  -4.6383   5.5570   0.00    0.0
2014/03/16 01:17:30.000   47.067141731   15.493495373   545.1422   5   7   6.5786   4.3545  15.7969   2.5765  -4.5958   5.6666   0.00    0.0
2014/03/16 01:18:00.000   47.067140897   15.493491604   545.0522   5   7   6.5987   4.3391  15.8961   2.5477  -4.5524   5.7747   0.00    0.0
2014/03/16 01:18:30.000   47.067141713   15.493489884   545.2370   5   7   6.6193   4.3239  15.9957   2.5195  -4.5078   5.8814   0.00    0.0
2014/03/16 01:19:00.000   47.067142696   15.493488486   546.3033   5   7   6.6402   4.3090  16.0958   2.4919  -4.4621   5.9866   0.00    0.0
2014/03/16 01:19:30.000   47.067143692   15.493487023   546.3838   5   7   6.6616   4.2944  16.1960   2.4649  -4.4153   6.0903   0.00    0.0
2014/03/16 01:20:00.000   47.067142276   15.493486653   545.9599   5   7   6.6833   4.2801  16.2964   2.4386  -4.3671   6.1926   0.00    0.0
2014/03/16 01:20:30.000   47.067143515   15.493486732   546.3609   5   7   6.7054   4.2662  16.3969   2.4130  -4.3176   6.2934   0.00    0.0
2014/03/16 01:21:00.000   47.067142966   15.493485077   546.3156   5   7   6.7277   4.2525  16.4972   2.3882  -4.2666   6.3926   0.00    0.0
2014/03/16 01:21:30.000   47.067141056   15.493484254   545.6913   5   7   6.7503   4.2391  16.5972   2.3640  -4.2142   6.4902   0.00    0.0
2014/03/16 01:22:00.000   47.067140538   15.493483553   545.5480   5   7   6.7731   4.2261  16.6968   2.3407  -4.1601   6.5862   0.00    0.0
2014/03/16 01:22:30.000   47.067141208   15.493483683   545.2246   5   7   6.7961   4.2133  16.7959   2.3181  -4.1043   6.6806   0.00    0.0
2014/03/16 01:23:00.000   47.067143084   15.493485855   545.0500   5   7   6.8191   4.2009  16.8943   2.2964  -4.0468   6.7732   0.00    0.0
2014/03/16 01:23:30.000   47.067142172   15.493488792   544.0841   5   7   6.8423   4.1888  16.9918   2.2754  -3.9873   6.8640   0.00    0.0
2014/03/16 01:24:00.000   47.067141613   15.493489136   543.8142   5   7   6.8654   4.1770  17.0882   2.2554  -3.9259   6.9529   0.00    0.0
2014/03/16 01:24:30.000   47.067140426   15.493489079   543.5882   5   7   6.8885   4.1655  17.1834   2.2361  -3.8623   7.0399   0.00    0.0
2014/03/16 01:25:00.000   47.067140738   15.493488258   543.8477   5   7   6.9115   4.1544  17.2772   2.2178  -3.7965   7.1248   0.00    0.0
2014/03/16 01:25:30.000   47.067142317   15.493488580   544.1500   5   7   6.9344   4.1436  17.3695   2.2004  -3.7284   7.2077   0.00    0.0
2014/03/16 01:26:00.000   47.067142066   15.493488767   543.9842   5   7   6.9571   4.1332  17.4599   2.1839  -3.6578   7.2883   0.00    0.0
2014/03/16 01:26:30.000   47.067142324   15.493488305   544.4248   5   7   6.9795   4.1231  17.5484   2.1682  -3.5845   7.3666   0.00    0.0
2014/03/16 01:27:00.000   47.067142388   15.493486137   543.8007   5   7   7.0015   4.1133  17.6347   2.1535  -3.5084   7.4425   0.00    0.0
2014/03/16 01:27:30.000   47.067144864   15.493485276   543.7857   5   7   7.0232   4.1039  17.7187   2.1397  -3.4294   7.5159   0.00    0.0
2014/03/16 01:28:00.000   47.067148031   15.493486460   543.9955   5   7   7.0445   4.0949  17.8001   2.1268  -3.3472   7.5867   0.00    0.0
2014/03/16 01:28:30.000   47.067147761   15.493487603   543.9412   5   7   7.0653   4.0863  17.8788   2.1147  -3.2616   7.6548   0.00    0.0
2014/03/16 01:29:00.000   47.067147705   15.493486924   544.3590   5   7   7.0855   4.0780  17.9544   2.1035  -3.1724   7.7201   0.00    0.0
2014/03/16 01:29:30.000   47.067148064   15.493486617   544.9337   5   7   7.1050   4.0701  18.0270   2.0932  -3.0794   7.7825   0.00    0.0
2014/03/16 01:30:00.000   47.067149140   15.493488344   546.1488   5   7   7.1239   4.0626  18.0962   2.0837  -2.9822   7.8419   0.00    0.0
2014/03/16 01:30:30.000   47.067146076   15.493491664   546.4668   5   7   7.1421   4.0555  18.1618   2.0749  -2.8805   7.8981   0.00    0.0
2014/03/16 01:31:00.000   47.067142956   15.493491973   546.4339   5   7   7.1595   4.0488  18.2237   2.0669  -2.7738   7.9511   0.00    0.0
2014/03/16 01:31:30.000   47.067139826   15.493489092   545.4983   5   7   7.1760   4.0424  18.2817   2.0596  -2.6617   8.0008   0.00    0.0
2014/03/16 01:32:00.000   47.067138859   15.493485502   544.9386   5   7   7.1916   4.0365  18.3356   2.0529  -2.5434   8.0471   0.00    0.0
2014/03/16 01:32:30.000   47.067138264   15.493483942   544.7803   5   7   7.2062   4.0310  18.3853   2.0469  -2.4184   8.0899   0.00    0.0
2014/03/16 01:33:00.000   47.067138047   15.493484881   544.4541   5   7   7.2199   4.0259  18.4305   2.0414  -2.2855   8.1291   0.00    0.0
2014/03/16 01:33:30.000   47.067138457   15.493485208   544.3128   5   7   7.2325   4.0212  18.4713   2.0363  -2.1435   8.1646   0.00    0.0
2014/03/16 01:34:00.000   47.067140921   15.493488203   544.1317   5   7   7.2440   4.0169  18.5073   2.0317  -1.9906   8.1963   0.00    0.0
2014/03/16 01:34:30.000   47.067141970   15.493490345   544.1515   5   7   7.2544   4.0131  18.5385   2.0274  -1.8242   8.2243   0.00    0.0
2014/03/16 01:35:00.000   47.067144465   15.493490233   544.7389   5   7   7.2636   4.0097  18.5648   2.0234  -1.6405   8.2483   0.00    0.0
2014/03/16 01:35:30.000   47.067144910   15.493490168   545.6095   5   7   7.2716   4.0067  18.5861   2.0195  -1.4330   8.2685   0.00    0.0
2014/03/16 01:36:00.000   47.067144922   15.493488744   545.4749   5   7   7.2784   4.0041  18.6023   2.0158  -1.1899   8.2847   0.00    0.0
2014/03/16 01:36:30.000   47.067147207   15.493489140   545.5007   5   7   7.2840   4.0019  18.6133   2.0121  -0.8825   8.2969   0.00    0.0
2014/03/16 01:37:00.000   47.067147467   15.493489455   545.1031   5   7   7.2883   4.0002  18.6191   2.0084  -0.3785   8.3050   0.00    0.0
2014/03/16 01:37:30.000   47.067148836   15.493488442   545.1106   5   7   7.2914   3.9988  18.6197   2.0046   0.7001   8.3091   0.00    0.0
2014/03/16 01:38:00.000   47.067148707   15.493488283   545.4710   5   7   7.2932   3.9979  18.6151   2.0005   1.0585   8.3092   0.00    0.0
2014/03/16 01:38:30.000   47.067147986   15.493488841   545.3237   5   7   7.2937   3.9974  18.6052   1.9962   1.3217   8.3052   0.00    0.0
2014/03/16 01:39:00.000   47.067148445   15.493489279   545.1709   5   7   7.2930   3.9973  18.5901   1.9915   1.5390   8.2971   0.00    0.0
2014/03/16 01:39:30.000   47.067147579   15.493489304   545.2031   5   7   7.2910   3.9976  18.5698   1.9864   1.7277   8.2851   0.00    0.0
2014/03/16 01:40:00.000   47.067146581   15.493488681   545.1118   5   7   7.2878   3.9983  18.5444   1.9808   1.8961   8.2691   0.00    0.0
2014/03/16 01:40:30.000   47.067144273   15.493489156   544.9959   5   7   7.2834   3.9994  18.5139   1.9745   2.0490   8.2491   0.00    0.0
2014/03/16 01:41:00.000   47.067142778   15.493490300   544.9877   5   7   7.2778   4.0009  18.4785   1.9676   2.1896   8.2252   0.00    0.0
2014/03/16 01:41:30.000   47.067142054   15.493490476   544.7291   5   7   7.2710   4.0028  18.4382   1.9599   2.3199   8.1975   0.00    0.0
2014/03/16 01:42:00.000   47.067143931   15.493490984   544.2340   5   7   7.2631   4.0050  18.3931   1.9514   2.4414   8.1661   0.00    0.0
2014/03/16 01:42:30.000   47.067145220   15.493490120   543.3571   5   7   7.2540   4.0076  18.3433   1.9421   2.5554   8.1309   0.00    0.0
2014/03/16 01:43:00.000   47.067146014   15.493491292   543.4449   5   7   7.2440   4.0106  18.2891   1.9317   2.6626   8.0921   0.00    0.0
2014/03/16 01:43:30.000   47.067144839   15.493492890   543.9499   5   7   7.2329   4.0139  18.2305   1.9203   2.7638   8.0498   0.00    0.0
2014/03/16 01:44:00.000   47.067142542   15.493494389   544.3923   5   7   7.2209   4.0176  18.1678   1.9079   2.8596   8.0040   0.00    0.0
2014/03/16 01:44:30.000   47.067142391   15.493493151   545.2010   5   7   7.2080   4.0216  18.1010   1.8942   2.9505   7.9549   0.00    0.0
2014/03/16 01:45:00.000   47.067142255   15.493490953   545.4054   5   7   7.1942   4.0259  18.0304   1.8794   3.0367   7.9026   0.00    0.0
2014/03/16 01:45:30.000   47.067142362   15.493490432   545.1645   5   7   7.1797   4.0306  17.9561   1.8632   3.1187   7.8471   0.00    0.0
2014/03/16 01:46:00.000   47.067144792   15.493491016   545.1953   5   7   7.1643   4.0356  17.8783   1.8457   3.1968   7.7886   0.00    0.0
2014/03/16 01:46:30.000   47.067146538   15.493491448   544.9775   5   7   7.1483   4.0408  17.7973   1.8268   3.2712   7.7271   0.00    0.0
2014/03/16 01:47:00.000   47.067147373   15.493491343   544.4862   5   7   7.1317   4.0464  17.7132   1.8063   3.3422   7.6629   0.00    0.0
2014/03/16 01:47:30.000   47.067148094   15.493492058   544.2166   5   7   7.1145   4.0523  17.6261   1.7843   3.4099   7.5959   0.00    0.0
2014/03/16 01:48:00.000   47.067147563   15.493493625   544.5622   5   7   7.0968   4.0585  17.5364   1.7607   3.4747   7.5263   0.00    0.0
2014/03/16 01:48:30.000   47.067143481   15.493493694   544.7176   5   7   7.0786   4.0650  17.4442   1.7354   3.5365   7.4543   0.00    0.0
2014/03/16 01:49:00.000   47.067139199   15.493494747   545.0696   5   7   7.0601   4.0717  17.3497   1.7082   3.5957   7.3798   0.00    0.0
2014/03/16 01:49:30.000   47.067139561   15.493495288   546.0843   5   7   7.0412   4.0787  17.2531   1.6792   3.6523   7.3031   0.00    0.0
2014/03/16 01:50:00.000   47.067141171   15.493494923   546.6825   5   7   7.0220   4.0860  17.1546   1.6482   3.7065   7.2243   0.00    0.0
2014/03/16 01:50:30.000   47.067142055   15.493493421   546.3873   5   7   7.0026   4.0936  17.0543   1.6151   3.7584   7.1433   0.00    0.0
2014/03/16 01:51:00.000   47.067142326   15.493491855   545.2999   5   7   6.9831   4.1014  16.9525   1.5798   3.8082   7.0604   0.00    0.0
2014/03/16 01:51:30.000   47.067143284   15.493490351   544.4414   5   7   6.9634   4.1094  16.8494   1.5421   3.8559   6.9756   0.00    0.0
2014/03/16 01:52:00.000   47.067142498   15.493489856   544.1174   5   7   6.9436   4.1178  16.7451   1.5019   3.9017   6.8890   0.00    0.0
2014/03/16 01:52:30.000   47.067140722   15.493490171   544.1632   5   7   6.9239   4.1263  16.6397   1.4590   3.9457   6.8008   0.00    0.0
2014/03/16 01:53:00.000   47.067139366   15.493489449   544.2893   5   7   6.9042   4.1351  16.5336   1.4131   3.9880   6.7109   0.00    0.0
2014/03/16 01:53:30.000   47.067139604   15.493486635   544.0420   5   7   6.8845   4.1442  16.4267   1.3639   4.0286   6.6194   0.00    0.0
2014/03/16 01:54:00.000   47.067140057   15.493484526   543.6671   5   7   6.8650   4.1535  16.3192   1.3112   4.0677   6.5265   0.00    0.0
2014/03/16 01:54:30.000   47.067139753   15.493486176   543.4262   5   7   6.8457   4.1630  16.2114   1.2545   4.1054   6.4322   0.00    0.0
2014/03/16 01:55:00.000   47.067143705   15.493486313   543.3670   5   7   6.8265   4.1728  16.1034   1.1933   4.1418   6.3366   0.00    0.0
2014/03/16 01:55:30.000   47.067146009   15.493486719   543.9566   5   7   6.8076   4.1828  15.9951   1.1268   4.1768   6.2396   0.00    0.0
2014/03/16 01:56:00.000   47.067149769   15.493487061   544.7487   5   7   6.7890   4.1931  15.8869   1.0541   4.2107   6.1414   0.00    0.0
2014/03/16 01:56:30.000   47.067147451   15.493487229   544.4859   5   7   6.7707   4.2035  15.7789   0.9738   4.2434   6.0421   0.00    0.0
2014/03/16 01:57:00.000   47.067146736   15.493489201   544.5462   5   7   6.7527   4.2143  15.6710   0.8840   4.2750   5.9415   0.00    0.0
2014/03/16 01:57:30.000   47.067143033   15.493490859   544.2544   5   7   6.7352   4.2252  15.5635   0.7813   4.3057   5.8398   0.00    0.0
2014/03/16 01:58:00.000   47.067141268   15.493492066   543.9213   5   7   6.7180   4.2364  15.4564   0.6598   4.3355   5.7370   0.00    0.0
2014/03/16 01:58:30.000   47.067141403   15.493494054   543.5486   5   7   6.7012   4.2479  15.3498   0.5063   4.3644   5.6331   0.00    0.0
2014/03/16 01:59:00.000   47.067142305   15.493494912   543.4411   5   7   6.6849   4.2596  15.2438   0.2710   4.3924   5.5281   0.00    0.0
2014/03/16 01:59:30.000   47.067144787   15.493495148   544.0061   5   7   6.6690   4.2715  15.1385  -0.3366   4.4198   5.4220   0.00    0.0
2014/03/16 02:00:00.000   47.067145258   15.493493699   544.3330   5   7   6.6537   4.2836  15.0340  -0.5512   4.4464   5.3148   0.00    0.0
2014/03/16 02:00:30.000   47.067144407   15.493493940   544.3208   5   7   6.6388   4.2960  14.9303  -0.7057   4.4724   5.2065   0.00    0.0
2014/03/16 02:01:00.000   47.067142235   15.493495961   544.1221   5   7   6.6245   4.3087  14.8275  -0.8342   4.4977   5.0971   0.00    0.0
2014/03/16 02:01:30.000   47.067139157   15.493494057   543.6895   5   7   6.6107   4.3216  14.7256  -0.9473   4.5226   4.9865   0.00    0.0
2014/03/16 02:02:00.000   47.067137533   15.493490527   543.4925   5   7   6.5975   4.3347  14.6248  -1.0499   4.5469   4.8747   0.00    0.0
2014/03/16 02:02:30.000   47.067137774   15.493487946   543.3528   5   7   6.5849   4.3481  14.5250  -1.1450   4.5707   4.7616   0.00    0.0
2014/03/16 02:03:00.000   47.067138074   15.493487604   543.3804   5   7   6.5728   4.3618  14.4263  -1.2341   4.5942   4.6471   0.00    0.0
2014/03/16 02:03:30.000   47.067139512   15.493489216   543.0694   5   7   6.5613   4.3757  14.3287  -1.3185   4.6172   4.5312   0.00    0.0
2014/03/16 02:04:00.000   47.067141640   15.493490023   542.9933   5   7   6.5504   4.3898  14.2323  -1.3990   4.6399   4.4138   0.00    0.0
2014/03/16 02:04:30.000   47.067141250   15.493489593   542.9431   5   7   6.5400   4.4043  14.1371  -1.4762   4.6622   4.2948   0.00    0.0
2014/03/16 02:05:00.000   47.067140160   15.493488722   542.5500   5   7   6.5303   4.4189  14.0432  -1.5507   4.6843   4.1740   0.00    0.0
2014/03/16 02:05:30.000   47.067138523   15.493487362   542.0630   5   7   6.5212   4.4339  13.9505  -1.6228   4.7061   4.0513   0.00    0.0
2014/03/16 02:06:00.000   47.067137418   15.493485335   541.6599   5   7   6.5128   4.4491  13.8590  -1.6928   4.7277   3.9264   0.00    0.0
2014/03/16 02:06:30.000   47.067139738   15.493486089   541.5729   5   7   6.5049   4.4646  13.7689  -1.7609   4.7490   3.7993   0.00    0.0
2014/03/16 02:07:00.000   47.067143176   15.493486612   542.3148   5   7   6.4976   4.4803  13.6800  -1.8274   4.7702   3.6696   0.00    0.0
2014/03/16 02:07:30.000   47.067146725   15.493487012   543.7212   5   7   6.4910   4.4964  13.5925  -1.8923   4.7913   3.5371   0.00    0.0
2014/03/16 02:08:00.000   47.067146140   15.493489127   544.7290   5   7   6.4850   4.5127  13.5063  -1.9560   4.8122   3.4013   0.00    0.0
2014/03/16 02:08:30.000   47.067145105   15.493490240   545.2105   5   7   6.4795   4.5293  13.4214  -2.0184   4.8330   3.2619   0.00    0.0
2014/03/16 02:09:00.000   47.067143123   15.493489552   545.1658   5   7   6.4748   4.5461  13.3379  -2.0796   4.8537   3.1184   0.00    0.0
2014/03/16 02:09:30.000   47.067141933   15.493489861   545.0022   5   7   6.4706   4.5633  13.2557  -2.1399   4.8743   2.9701   0.00    0.0
2014/03/16 02:10:00.000   47.067141211   15.493492045   545.4660   5   7   6.4670   4.5807  13.1749  -2.1992   4.8948   2.8163   0.00    0.0
2014/03/16 02:10:30.000   47.067142187   15.493494189   545.6915   5   7   6.4640   4.5984  13.0954  -2.2577   4.9154   2.6559   0.00    0.0
2014/03/16 02:11:00.000   47.067141776   15.493493490   545.0419   5   7   6.4617   4.6164  13.0172  -2.3153   4.9359   2.4878   0.00    0.0
2014/03/16 02:11:30.000   47.067142972   15.493492277   544.0967   5   7   6.4599   4.6347  12.9404  -2.3723   4.9564   2.3100   0.00    0.0
2014/03/16 02:12:00.000   47.067141697   15.493493391   543.2259   5   7   6.4587   4.6533  12.8649  -2.4285   4.9769   2.1202   0.00    0.0
2014/03/16 02:12:30.000   47.067140528   15.493492523   542.6824   5   7   6.4581   4.6722  12.7908  -2.4840   4.9974   1.9147   0.00    0.0
2014/03/16 02:13:00.000   47.067141237   15.493491131   542.6316   5   7   6.4581   4.6914  12.7179  -2.5390   5.0179   1.6877   0.00    0.0
2014/03/16 02:13:30.000   47.067142092   15.493489807   542.6636   5   7   6.4587   4.7109  12.6464  -2.5934   5.0385   1.4290   0.00    0.0
2014/03/16 02:14:00.000   47.067142269   15.493489772   542.5744   5   7   6.4599   4.7307  12.5761  -2.6473   5.0591   1.1167   0.00    0.0
2014/03/16 02:14:30.000   47.067142907   15.493489429   542.5996   5   7   6.4616   4.7508  12.5072  -2.7007   5.0798   0.6803   0.00    0.0
2014/03/16 02:15:00.000   47.067141619   15.493487898   542.5711   5   7   6.4638   4.7711  12.4395  -2.7536   5.1006  -0.5574   0.00    0.0
2014/03/16 02:15:30.000   47.067142009   15.493487827   542.9345   5   7   6.4666   4.7918  12.3731  -2.8061   5.1214  -1.0362   0.00    0.0
2014/03/16 02:16:00.000   47.067141409   15.493489626   543.4449   5   7   6.4700   4.8128  12.3079  -2.8581   5.1423  -1.3514   0.00    0.0
2014/03/16 02:16:30.000   47.067138358   15.493490435   543.8408   5   7   6.4739   4.8341  12.2440  -2.9098   5.1632  -1.6028   0.00    0.0
2014/03/16 02:17:00.000   47.067136044   15.493491808   544.1317   5   7   6.4783   4.8558  12.1813  -2.9611   5.1843  -1.8171   0.00    0.0
2014/03/16 02:17:30.000   47.067137862   15.493489534   543.8708   5   7   6.4832   4.8777  12.1198  -3.0120   5.2054  -2.0062   0.00    0.0
2014/03/16 02:18:00.000   47.067140672   15.493486574   543.3080   5   7   6.4886   4.8999  12.0594  -3.0626   5.2267  -2.1768   0.00    0.0
2014/03/16 02:18:30.000   47.067142810   15.493485381   543.1469   5   7   6.4946   4.9225  12.0003  -3.1129   5.2480  -2.3330   0.00    0.0
2014/03/16 02:19:00.000   47.067143028   15.493487616   543.4417   5   7   6.5010   4.9453  11.9423  -3.1629   5.2695  -2.4775   0.00    0.0
2014/03/16 02:19:30.000   47.067141216   15.493492341   543.7656   5   7   6.5079   4.9685  11.8854  -3.2126   5.2910  -2.6124   0.00    0.0
2014/03/16 02:20:00.000   47.067138982   15.493495289   543.5889   5   7   6.5153   4.9919  11.8297  -3.2620   5.3127  -2.7390   0.00    0.0
2014/03/16 02:20:30.000   47.067139341   15.493495241   543.4474   5   7   6.5231   5.0157  11.7750  -3.3111   5.3344  -2.8586   0.00    0.0
2014/03/16 02:21:00.000   47.067140088   15.493494223   543.4900   5   7   6.5314   5.0398  11.7215  -3.3601   5.3563  -2.9719   0.00    0.0
2014/03/16 02:21:30.000   47.067141978   15.493493242   543.5755   5   7   6.5402   5.0642  11.6690  -3.4087   5.3783  -3.0798   0.00    0.0
2014/03/16 02:22:00.000   47.067140984   15.493494626   543.8121   5   7   6.5493   5.0889  11.6175  -3.4572   5.4004  -3.1827   0.00    0.0
2014/03/16 02:22:30.000   47.067136037   15.493496510   543.9689   5   7   6.5589   5.1139  11.5671  -3.5054   5.4225  -3.2812   0.00    0.0
2014/03/16 02:23:00.000   47.067132148   15.493497347   544.2548   5   7   6.5689   5.1392  11.5177  -3.5534   5.4448  -3.3757   0.00    0.0
2014/03/16 02:23:30.000   47.067132991   15.493493390   544.2430   5   7   6.5793   5.1648  11.4693  -3.6012   5.4672  -3.4665   0.00    0.0
2014/03/16 02:24:00.000   47.067133998   15.493491800   544.4553   5   7   6.5901   5.1907  11.4218  -3.6488   5.4897  -3.5540   0.00    0.0
2014/03/16 02:24:30.000   47.067134257   15.493490444   543.9367   5   7   6.6013   5.2169  11.3753  -3.6961   5.5123  -3.6383   0.00    0.0
2014/03/16 02:25:00.000   47.067135694   15.493490991   543.7327   5   8   6.2329   3.4877   7.7068  -2.3158  -1.3711   2.1237   0.00    0.0
2014/03/16 02:25:30.000   47.067136354   15.493490745   543.2552   5   8   6.2222   3.4886   7.6935  -2.3201  -1.3137   2.0851   0.00    0.0
2014/03/16 02:26:00.000   47.067136212   15.493490989   543.0147   5   8   6.2113   3.4897   7.6802  -2.3244  -1.2539   2.0457   0.00    0.0
2014/03/16 02:26:30.000   47.067136132   15.493491519   542.7709   5   8   6.2002   3.4909   7.6669  -2.3286  -1.1912   2.0055   0.00    0.0
2014/03/16 02:27:00.000   47.067137466   15.493494392   542.2694   5   8   6.1891   3.4922   7.6536  -2.3328  -1.1252   1.9645   0.00    0.0
2014/03/16 02:27:30.000   47.067138319   15.493496720   541.9703   5   8   6.1778   3.4936   7.6403  -2.3370  -1.0553   1.9225   0.00    0.0
2014/03/16 02:28:00.000   47.067137653   15.493497004   541.7083   5   8   6.1663   3.4952   7.6271  -2.3411  -0.9807   1.8797   0.00    0.0
2014/03/16 02:28:30.000   47.067140131   15.493495655   541.6884   5   8   6.1548   3.4969   7.6139  -2.3453  -0.9002   1.8359   0.00    0.0
2014/03/16 02:29:00.000   47.067143217   15.493493627   542.1559   5   8   6.1432   3.4987   7.6008  -2.3494  -0.8120   1.7911   0.00    0.0
2014/03/16 02:29:30.000   47.067145336   15.493492540   542.5341   5   8   6.1314   3.5007   7.5877  -2.3535  -0.7134   1.7453   0.00    0.0
2014/03/16 02:30:00.000   47.067146996   15.493492714   542.7310   5   8   6.1196   3.5027   7.5746  -2.3576  -0.5991   1.6983   0.00    0.0
2014/03/16 02:30:30.000   47.067145841   15.493491519   542.9309   5   8   6.1076   3.5049   7.5615  -2.3616  -0.4577   1.6502   0.00    0.0
2014/03/16 02:31:00.000   47.067144388   15.493490242   543.2699   5   8   6.0956   3.5072   7.5485  -2.3657  -0.2461   1.6007   0.00    0.0
2014/03/16 02:31:30.000   47.067142416   15.493489124   543.2644   5   8   6.0834   3.5097   7.5356  -2.3698   0.2963   1.5499   0.00    0.0
2014/03/16 02:32:00.000   47.067141072   15.493489235   543.3131   5   8   6.0712   3.5122   7.5227  -2.3739   0.4854   1.4976   0.00    0.0
2014/03/16 02:32:30.000   47.067140612   15.493487863   543.3528   5   8   6.0589   3.5149   7.5099  -2.3779   0.6188   1.4436   0.00    0.0
2014/03/16 02:33:00.000   47.067139234   15.493487977   543.4388   5   8   6.0466   3.5177   7.4971  -2.3820   0.7277   1.3878   0.00    0.0
2014/03/16 02:33:30.000   47.067139368   15.493489188   543.4889   5   8   6.0341   3.5206   7.4843  -2.3861   0.8220   1.3300   0.00    0.0
2014/03/16 02:34:00.000   47.067140809   15.493488854   543.3415   5   8   6.0216   3.5237   7.4717  -2.3901   0.9062   1.2699   0.00    0.0
2014/03/16 02:34:30.000   47.067142866   15.493486799   543.4216   5   8   6.0090   3.5268   7.4590  -2.3942   0.9829   1.2072   0.00    0.0
2014/03/16 02:35:00.000   47.067140724   15.493487716   543.6042   5   8   5.9964   3.5301   7.4465  -2.3983   1.0537   1.1415   0.00    0.0
2014/03/16 02:35:30.000   47.067139817   15.493489490   543.5877   5   8   5.9837   3.5335   7.4340  -2.4024   1.1198   1.0722   0.00    0.0
2014/03/16 02:36:00.000   47.067139551   15.493490164   543.6762   5   8   5.9709   3.5370   7.4215  -2.4065   1.1820   0.9987   0.00    0.0
2014/03/16 02:36:30.000   47.067138858   15.493489959   543.3322   5   8   5.9581   3.5407   7.4092  -2.4106   1.2408   0.9200   0.00    0.0
2014/03/16 02:37:00.000   47.067139403   15.493489794   543.0331   5   8   5.9452   3.5444   7.3969  -2.4147   1.2966   0.8346   0.00    0.0
2014/03/16 02:37:30.000   47.067138407   15.493490066   542.6681   5   8   5.9323   3.5483   7.3846  -2.4189   1.3500   0.7402   0.00    0.0
2014/03/16 02:38:00.000   47.067136932   15.493489218   542.6817   5   7   5.9195   4.8324   9.9693  -2.3978  -4.4747   0.3897   0.00    0.0
2014/03/16 02:38:30.000   47.067136010   15.493489778   542.5862   5   7   5.9065   4.8245   9.9439  -2.4067  -4.4379   0.2265   0.00    0.0
2014/03/16 02:39:00.000   47.067133737   15.493490395   542.6841   5   7   5.8934   4.8167   9.9183  -2.4153  -4.4008  -0.2224   0.00    0.0
2014/03/16 02:39:30.000   47.067133538   15.493492248   542.8807   5   7   5.8804   4.8090   9.8925  -2.4239  -4.3634  -0.3876   0.00    0.0
2014/03/16 02:40:00.000   47.067134565   15.493491729   543.2052   5   8   5.3012   3.6880   7.9035   1.3474  -0.7432  -3.8862   0.00    0.0
2014/03/16 02:40:30.000   47.067134824   15.493491684   543.4133   5   8   5.2901   3.6879   7.9136   1.3133  -0.6847  -3.8751   0.00    0.0
2014/03/16 02:41:00.000   47.067133888   15.493491319   543.5428   5   8   5.2790   3.6879   7.9235   1.2786  -0.6209  -3.8639   0.00    0.0
2014/03/16 02:41:30.000   47.067134102   15.493494650   543.4521   5   8   5.2680   3.6880   7.9331   1.2432  -0.5498  -3.8526   0.00    0.0
2014/03/16 02:42:00.000   47.067135605   15.493495865   543.3808   5   8   5.2569   3.6882   7.9425   1.2069  -0.4683  -3.8411   0.00    0.0
2014/03/16 02:42:30.000   47.067136367   15.493495635   543.3538   5   8   5.2459   3.6885   7.9517   1.1699  -0.3694  -3.8294   0.00    0.0
2014/03/16 02:43:00.000   47.067139900   15.493493779   543.6421   5   8   5.2350   3.6889   7.9606   1.1319  -0.2321  -3.8176   0.00    0.0
2014/03/16 02:43:30.000   47.067142782   15.493492518   543.4940   5   8   5.2240   3.6895   7.9693   1.0928   0.1689  -3.8057   0.00    0.0
2014/03/16 02:44:00.000   47.067143705   15.493491432   543.3548   5   8   5.2131   3.6901   7.9777   1.0526   0.3328  -3.7936   0.00    0.0
2014/03/16 02:44:30.000   47.067142858   15.493488518   543.2856   5   8   5.2022   3.6909   7.9859   1.0111   0.4390  -3.7814   0.00    0.0
2014/03/16 02:45:00.000   47.067139980   15.493486897   543.4693   5   8   5.1914   3.6917   7.9937   0.9682   0.5239  -3.7690   0.00    0.0
2014/03/16 02:45:30.000   47.067141119   15.493484714   543.4791   5   8   5.1805   3.6927   8.0013   0.9236   0.5966  -3.7565   0.00    0.0
2014/03/16 02:46:00.000   47.067139446   15.493485997   543.7477   5   8   5.1697   3.6938   8.0087   0.8770   0.6612  -3.7439   0.00    0.0
2014/03/16 02:46:30.000   47.067135317   15.493490224   543.9244   5   8   5.1590   3.6949   8.0157   0.8282   0.7199  -3.7311   0.00    0.0
2014/03/16 02:47:00.000   47.067133202   15.493490921   543.8294   5   8   5.1483   3.6962   8.0225   0.7768   0.7739  -3.7182   0.00    0.0
2014/03/16 02:47:30.000   47.067133742   15.493488858   543.3799   5   8   5.1376   3.6976   8.0289   0.7221   0.8243  -3.7051   0.00    0.0
2014/03/16 02:48:00.000   47.067134879   15.493486467   542.6009   5   8   5.1269   3.6991   8.0351   0.6633   0.8716  -3.6919   0.00    0.0
2014/03/16 02:48:30.000   47.067136922   15.493483982   542.3115   5   8   5.1163   3.7007   8.0410   0.5992   0.9163  -3.6786   0.00    0.0
2014/03/16 02:49:00.000   47.067139505   15.493484922   542.1809   5   8   5.1058   3.7023   8.0466   0.5280   0.9587  -3.6652   0.00    0.0
2014/03/16 02:49:30.000   47.067140785   15.493487749   542.1484   5   8   5.0953   3.7041   8.0519   0.4462   0.9992  -3.6516   0.00    0.0
2014/03/16 02:50:00.000   47.067142525   15.493488243   542.6056   5   8   5.0848   3.7060   8.0568   0.3462   1.0380  -3.6380   0.00    0.0
2014/03/16 02:50:30.000   47.067142668   15.493488660   542.9371   5   8   5.0743   3.7080   8.0615   0.2032   1.0752  -3.6242   0.00    0.0
2014/03/16 02:51:00.000   47.067142097   15.493489677   543.0710   5   8   5.0640   3.7101   8.0658  -0.1918   1.1111  -3.6103   0.00    0.0
2014/03/16 02:51:30.000   47.067143080   15.493487362   542.9950   5   8   5.0536   3.7123   8.0699  -0.3381   1.1456  -3.5962   0.00    0.0
2014/03/16 02:52:00.000   47.067143495   15.493486599   542.7949   5   8   5.0433   3.7146   8.0736  -0.4374   1.1791  -3.5821   0.00    0.0
2014/03/16 02:52:30.000   47.067143201   15.493485891   542.7569   5   8   5.0331   3.7169   8.0770  -0.5175   1.2114  -3.5679   0.00    0.0
2014/03/16 02:53:00.000   47.067142471   15.493485731   543.1240   5   8   5.0229   3.7194   8.0800  -0.5863   1.2428  -3.5535   0.00    0.0
2014/03/16 02:53:30.000   47.067139359   15.493485052   543.3792   5   9   4.7074   3.5921   7.6901  -1.4486  -0.8971  -4.1003   0.00    0.0
2014/03/16 02:54:00.000   47.067138574   15.493485022   543.9657   5   9   4.6988   3.5942   7.6954  -1.4736  -0.8519  -4.0842   0.00    0.0
2014/03/16 02:54:30.000   47.067138005   15.493485364   544.0129   5   9   4.6903   3.5965   7.7004  -1.4981  -0.8042  -4.0679   0.00    0.0
2014/03/16 02:55:00.000   47.067137606   15.493485441   543.6555   5   9   4.6818   3.5988   7.7053  -1.5220  -0.7535  -4.0515   0.00    0.0
2014/03/16 02:55:30.000   47.067137997   15.493486746   543.5808   5   9   4.6734   3.6012   7.7099  -1.5454  -0.6992  -4.0349   0.00    0.0
2014/03/16 02:56:00.000   47.067137880   15.493489059   543.2709   5   9   4.6650   3.6037   7.7142  -1.5683  -0.6404  -4.0181   0.00    0.0
2014/03/16 02:56:30.000   47.067138193   15.493491310   543.0134   5   9   4.6568   3.6063   7.7184  -1.5907  -0.5756  -4.0011   0.00    0.0
2014/03/16 02:57:00.000   47.067135730   15.493494650   542.8349   5   9   4.6486   3.6090   7.7222  -1.6126  -0.5025  -3.9840   0.00    0.0
2014/03/16 02:57:30.000   47.067134899   15.493495401   542.7921   5   9   4.6405   3.6117   7.7259  -1.6342  -0.4169  -3.9667   0.00    0.0
2014/03/16 02:58:00.000   47.067133311   15.493496471   542.9593   5   9   4.6325   3.6146   7.7293  -1.6553  -0.3084  -3.9493   0.00    0.0
2014/03/16 02:58:30.000   47.067134588   15.493494153   542.9964   5   9   4.6246   3.6175   7.7324  -1.6760  -0.1284  -3.9317   0.00    0.0
2014/03/16 02:59:00.000   47.067136424   15.493490681   543.1249   5   9   4.6167   3.6205   7.7354  -1.6963   0.2493  -3.9139   0.00    0.0
2014/03/16 02:59:30.000   47.067137248   15.493488332   542.9885   5   9   4.6090   3.6236   7.7380  -1.7162   0.3751  -3.8960   0.00    0.0
2014/03/16 03:00:00.000   47.067134400   15.493485037   543.3401   5   9   4.6013   3.6267   7.7404  -1.7358   0.4682  -3.8780   0.00    0.0
2014/03/16 03:00:30.000   47.067135990   15.493483737   543.2318   5   9   4.5938   3.6300   7.7426  -1.7551   0.5456  -3.8598   0.00    0.0
2014/03/16 03:01:00.000   47.067135069   15.493483146   543.3558   5   9   4.5863   3.6333   7.7445  -1.7740   0.6133  -3.8415   0.00    0.0
2014/03/16 03:01:30.000   47.067136254   15.493479490   543.4888   5   9   4.5789   3.6367   7.7461  -1.7927   0.6742  -3.8230   0.00    0.0
2014/03/16 03:02:00.000   47.067137302   15.493477854   543.5324   5   9   4.5716   3.6402   7.7475  -1.8110   0.7300  -3.8044   0.00    0.0
2014/03/16 03:02:30.000   47.067136457   15.493482031   543.5438   5   9   4.5644   3.6438   7.7486  -1.8290   0.7818  -3.7857   0.00    0.0
2014/03/16 03:03:00.000   47.067135248   15.493485625   543.7387   5   9   4.5574   3.6474   7.7495  -1.8467   0.8304  -3.7669   0.00    0.0
2014/03/16 03:03:30.000   47.067134294   15.493487245   543.6833   5   9   4.5504   3.6512   7.7500  -1.8642   0.8763  -3.7479   0.00    0.0
2014/03/16 03:04:00.000   47.067134444   15.493487306   543.7678   5   9   4.5435   3.6550   7.7504  -1.8814   0.9198  -3.7289   0.00    0.0
2014/03/16 03:04:30.000   47.067134215   15.493487381   543.7960   5   9   4.5367   3.6589   7.7504  -1.8983   0.9614  -3.7097   0.00    0.0
2014/03/16 03:05:00.000   47.067133960   15.493488162   543.8206   5   9   4.5301   3.6629   7.7502  -1.9150   1.0012  -3.6904   0.00    0.0
2014/03/16 03:05:30.000   47.067133804   15.493488917   543.6474   5   9   4.5235   3.6669   7.7498  -1.9315   1.0395  -3.6710   0.00    0.0
2014/03/16 03:06:00.000   47.067133329   15.493487920   543.4967   5   9   4.5171   3.6711   7.7490  -1.9477   1.0765  -3.6516   0.00    0.0
2014/03/16 03:06:30.000   47.067133904   15.493483868   543.3300   5   9   4.5107   3.6753   7.7480  -1.9637   1.1122  -3.6320   0.00    0.0
2014/03/16 03:07:00.000   47.067134844   15.493482400   543.2400   5   9   4.5045   3.6796   7.7467  -1.9794   1.1467  -3.6124   0.00    0.0
2014/03/16 03:07:30.000   47.067136662   15.493482976   542.8030   5   9   4.4984   3.6840   7.7452  -1.9950   1.1803  -3.5927   0.00    0.0
2014/03/16 03:08:00.000   47.067137032   15.493482617   542.4165   5   9   4.4923   3.6884   7.7434  -2.0104   1.2129  -3.5729   0.00    0.0
2014/03/16 03:08:30.000   47.067138220   15.493482622   542.4049   5   9   4.4865   3.6930   7.7413  -2.0255   1.2447  -3.5530   0.00    0.0
2014/03/16 03:09:00.000   47.067139289   15.493482278   542.5340   5   9   4.4807   3.6976   7.7389  -2.0405   1.2756  -3.5331   0.00    0.0
2014/03/16 03:09:30.000   47.067138527   15.493484117   542.7912   5   9   4.4750   3.7023   7.7363  -2.0553   1.3059  -3.5131   0.00    0.0
2014/03/16 03:10:00.000   47.067137146   15.493484427   543.2071   5   9   4.4695   3.7070   7.7334  -2.0699   1.3354  -3.4931   0.00    0.0
2014/03/16 03:10:30.000   47.067135752   15.493485972   543.0634   5   9   4.4640   3.7119   7.7302  -2.0843   1.3643  -3.4730   0.00    0.0
2014/03/16 03:11:00.000   47.067135394   15.493485112   542.7472   5   9   4.4587   3.7168   7.7268  -2.0986   1.3926  -3.4529   0.00    0.0
2014/03/16 03:11:30.000   47.067136311   15.493483283   542.6095   5   9   4.4535   3.7219   7.7231  -2.1127   1.4204  -3.4328   0.00    0.0
2014/03/16 03:12:00.000   47.067136376   15.493484729   542.7118   5   9   4.4484   3.7270   7.7192  -2.1266   1.4476  -3.4126   0.00    0.0
2014/03/16 03:12:30.000   47.067138427   15.493481237   542.3043   5  10   4.1004   3.1901   6.9231  -1.1247  -2.1026  -2.3832   0.00    0.0
2014/03/16 03:13:00.000   47.067141726   15.493481005   542.7768   5   9   4.7815   3.1892   7.4242  -1.1471  -2.0898   1.0179   0.00    0.0
2014/03/16 03:13:30.000   47.067141719   15.493481832   542.6381   5   9   4.7807   3.1883   7.4553  -1.1670  -2.0757   1.1683   0.00    0.0
2014/03/16 03:14:00.000   47.067140259   15.493482869   542.6507   5   9   4.7802   3.1875   7.4872  -1.1861  -2.0613   1.3024   0.00    0.0
2014/03/16 03:14:30.000   47.067140908   15.493482168   542.8249   5   9   4.7801   3.1868   7.5197  -1.2044  -2.0466   1.4249   0.00    0.0
2014/03/16 03:15:00.000   47.067141119   15.493483493   543.0282   5   9   4.7803   3.1861   7.5529  -1.2220  -2.0315   1.5386   0.00    0.0
2014/03/16 03:15:30.000   47.067139249   15.493484971   543.0176   5   9   4.7808   3.1855   7.5869  -1.2390  -2.0160   1.6453   0.00    0.0
2014/03/16 03:16:00.000   47.067136849   15.493486915   542.9788   5   9   4.7816   3.1849   7.6215  -1.2553  -2.0001   1.7464   0.00    0.0
2014/03/16 03:16:30.000   47.067134649   15.493489620   542.6922   5   9   4.7828   3.1844   7.6568  -1.2709  -1.9837   1.8427   0.00    0.0
2014/03/16 03:17:00.000   47.067133431   15.493488342   542.6601   5   9   4.7842   3.1839   7.6928  -1.2859  -1.9669   1.9351   0.00    0.0
2014/03/16 03:17:30.000   47.067135374   15.493486560   542.8119   5   9   4.7860   3.1835   7.7295  -1.3003  -1.9495   2.0239   0.00    0.0
2014/03/16 03:18:00.000   47.067136805   15.493483858   542.9925   5   9   4.7881   3.1831   7.7669  -1.3140  -1.9316   2.1098   0.00    0.0
2014/03/16 03:18:30.000   47.067138855   15.493481094   542.8964   5   9   4.7905   3.1828   7.8050  -1.3272  -1.9131   2.1931   0.00    0.0
2014/03/16 03:19:00.000   47.067140167   15.493479427   542.6906   5   9   4.7933   3.1826   7.8438  -1.3398  -1.8940   2.2741   0.00    0.0
2014/03/16 03:19:30.000   47.067140061   15.493481153   542.6488   5   9   4.7963   3.1824   7.8833  -1.3519  -1.8743   2.3529   0.00    0.0
2014/03/16 03:20:00.000   47.067140486   15.493482789   542.4175   5   9   4.7997   3.1823   7.9235  -1.3633  -1.8538   2.4299   0.00    0.0
2014/03/16 03:20:30.000   47.067141898   15.493480937   542.6105   5   9   4.8033   3.1822   7.9644  -1.3742  -1.8325   2.5052   0.00    0.0
2014/03/16 03:21:00.000   47.067144213   15.493478215   542.5765   5   9   4.8073   3.1822   8.0059  -1.3846  -1.8104   2.5790   0.00    0.0
2014/03/16 03:21:30.000   47.067145845   15.493478061   542.8385   5   9   4.8115   3.1822   8.0482  -1.3943  -1.7874   2.6514   0.00    0.0
2014/03/16 03:22:00.000   47.067145819   15.493478864   542.8620   5   9   4.8161   3.1823   8.0911  -1.4036  -1.7635   2.7224   0.00    0.0
2014/03/16 03:22:30.000   47.067145661   15.493479665   542.9416   5   9   4.8209   3.1825   8.1347  -1.4122  -1.7386   2.7924   0.00    0.0
2014/03/16 03:23:00.000   47.067144583   15.493480689   543.0609   5   9   4.8261   3.1827   8.1790  -1.4203  -1.7125   2.8612   0.00    0.0
2014/03/16 03:23:30.000   47.067141898   15.493481310   542.8144   5   9   4.8315   3.1830   8.2240  -1.4279  -1.6853   2.9289   0.00    0.0
2014/03/16 03:24:00.000   47.067140676   15.493481490   542.6966   5   9   4.8372   3.1834   8.2695  -1.4349  -1.6568   2.9958   0.00    0.0
2014/03/16 03:24:30.000   47.067140612   15.493482468   542.4444   5   9   4.8431   3.1839   8.3158  -1.4413  -1.6270   3.0617   0.00    0.0
2014/03/16 03:25:00.000   47.067140644   15.493481226   541.9456   5   9   4.8494   3.1844   8.3626  -1.4472  -1.5956   3.1268   0.00    0.0
2014/03/16 03:25:30.000   47.067139977   15.493482000   542.0842   5   9   4.8559   3.1850   8.4101  -1.4525  -1.5627   3.1911   0.00    0.0
2014/03/16 03:26:00.000   47.067139911   15.493482053   542.0403   5   9   4.8626   3.1857   8.4582  -1.4573  -1.5279   3.2547   0.00    0.0
2014/03/16 03:26:30.000   47.067139889   15.493482942   542.1522   5   9   4.8696   3.1864   8.5069  -1.4614  -1.4913   3.3175   0.00    0.0
2014/03/16 03:27:00.000   47.067137279   15.493484576   541.4507   5   9   4.8769   3.1873   8.5562  -1.4650  -1.4525   3.3797   0.00    0.0
2014/03/16 03:27:30.000   47.067137393   15.493483807   541.3048   5   9   4.8843   3.1882   8.6061  -1.4680  -1.4114   3.4412   0.00    0.0
