% program   : RTKPOST ver.2.4.2
% inp file  : C:\Users\Jacque Fresco\Dropbox\PSN_2017\Projektni zadatak_PSN_2017\Dino Vukeliæ\Prikupljanje podataka\76 Dan\graz0760.14d
% inp file  : C:\Users\Jacque Fresco\Dropbox\PSN_2017\Projektni zadatak_PSN_2017\Dino Vukeliæ\Prikupljanje podataka\76 Dan\brdc0760.14n
% obs start : 2014/03/17 00:00:00.0 GPST (week1784  86400.0s)
% obs end   : 2014/03/17 23:59:30.0 GPST (week1784 172770.0s)
% pos mode  : single
% elev mask : 15.0 deg
% ionos opt : off
% tropo opt : saastamoinen
% ephemeris : broadcast
%
% (lat/lon/height=WGS84/ellipsoidal,Q=1:fix,2:float,3:sbas,4:dgps,5:single,6:ppp,ns=# of satellites)
%  GPST                  latitude(deg) longitude(deg)  height(m)   Q  ns   sdn(m)   sde(m)   sdu(m)  sdne(m)  sdeu(m)  sdun(m) age(s)  ratio
2014/03/17 00:00:00.000   47.067138327   15.493479810   540.4141   5   5   9.8635   5.0783  13.0999   5.6919  -1.9595  -4.6485   0.00    0.0
2014/03/17 00:00:30.000   47.067140143   15.493480987   540.3436   5   5   9.9171   5.0879  13.1048   5.7168  -1.8165  -4.6073   0.00    0.0
2014/03/17 00:01:00.000   47.067140169   15.493479730   540.3723   5   5   9.9713   5.0980  13.1094   5.7420  -1.6603  -4.5650   0.00    0.0
2014/03/17 00:01:30.000   47.067130955   15.493473374   540.8137   5   5  10.0258   5.1084  13.1137   5.7676  -1.4868  -4.5217   0.00    0.0
2014/03/17 00:02:00.000   47.067151459   15.493483409   542.8695   5   6   6.8006   4.4376  12.4601   3.8176  -3.4825  -7.1108   0.00    0.0
2014/03/17 00:02:30.000   47.067151807   15.493482046   543.0660   5   6   6.7971   4.4311  12.4697   3.7984  -3.4158  -7.0953   0.00    0.0
2014/03/17 00:03:00.000   47.067152385   15.493481672   542.4526   5   6   6.7934   4.4248  12.4790   3.7790  -3.3472  -7.0793   0.00    0.0
2014/03/17 00:03:30.000   47.067150654   15.493480170   542.0939   5   6   6.7896   4.4189  12.4879   3.7596  -3.2765  -7.0628   0.00    0.0
2014/03/17 00:04:00.000   47.067150390   15.493479810   542.5705   5   6   6.7858   4.4132  12.4965   3.7401  -3.2037  -7.0458   0.00    0.0
2014/03/17 00:04:30.000   47.067149111   15.493478551   542.9381   5   6   6.7818   4.4078  12.5046   3.7206  -3.1287  -7.0284   0.00    0.0
2014/03/17 00:05:00.000   47.067145653   15.493477861   543.6955   5   6   6.7778   4.4027  12.5124   3.7010  -3.0512  -7.0104   0.00    0.0
2014/03/17 00:05:30.000   47.067143413   15.493479704   544.0625   5   6   6.7737   4.3980  12.5198   3.6813  -2.9710  -6.9919   0.00    0.0
2014/03/17 00:06:00.000   47.067142651   15.493481681   544.0623   5   6   6.7695   4.3935  12.5269   3.6617  -2.8881  -6.9730   0.00    0.0
2014/03/17 00:06:30.000   47.067145943   15.493484470   543.5367   5   6   6.7653   4.3894  12.5336   3.6419  -2.8022  -6.9536   0.00    0.0
2014/03/17 00:07:00.000   47.067148696   15.493485986   543.1567   5   6   6.7610   4.3856  12.5400   3.6222  -2.7129  -6.9338   0.00    0.0
2014/03/17 00:07:30.000   47.067149337   15.493485790   542.6590   5   6   6.7566   4.3821  12.5460   3.6025  -2.6200  -6.9135   0.00    0.0
2014/03/17 00:08:00.000   47.067147351   15.493483225   542.6003   5   6   6.7522   4.3790  12.5518   3.5827  -2.5231  -6.8927   0.00    0.0
2014/03/17 00:08:30.000   47.067146579   15.493480950   542.2078   5   6   6.7478   4.3762  12.5572   3.5630  -2.4218  -6.8715   0.00    0.0
2014/03/17 00:09:00.000   47.067142075   15.493478074   542.2837   5   6   6.7433   4.3738  12.5622   3.5432  -2.3154  -6.8498   0.00    0.0
2014/03/17 00:09:30.000   47.067141258   15.493477693   542.1625   5   6   6.7388   4.3717  12.5670   3.5235  -2.2034  -6.8277   0.00    0.0
2014/03/17 00:10:00.000   47.067140184   15.493479987   542.4420   5   6   6.7343   4.3700  12.5715   3.5038  -2.0847  -6.8052   0.00    0.0
2014/03/17 00:10:30.000   47.067143376   15.493480540   542.0859   5   6   6.7298   4.3687  12.5757   3.4842  -1.9582  -6.7823   0.00    0.0
2014/03/17 00:11:00.000   47.067144152   15.493481670   542.8606   5   7   6.1565   4.1910   9.9466   3.9156  -3.5766  -4.9838   0.00    0.0
2014/03/17 00:11:30.000   47.067143361   15.493480772   543.3342   5   7   6.1549   4.1833   9.9464   3.9053  -3.5308  -4.9558   0.00    0.0
2014/03/17 00:12:00.000   47.067141899   15.493479940   543.8748   5   7   6.1534   4.1759   9.9461   3.8951  -3.4843  -4.9275   0.00    0.0
2014/03/17 00:12:30.000   47.067140416   15.493479290   544.0507   5   7   6.1520   4.1686   9.9459   3.8851  -3.4370  -4.8989   0.00    0.0
2014/03/17 00:13:00.000   47.067139916   15.493480726   543.7678   5   7   6.1507   4.1615   9.9457   3.8751  -3.3888  -4.8700   0.00    0.0
2014/03/17 00:13:30.000   47.067140331   15.493482074   543.4572   5   7   6.1494   4.1547   9.9455   3.8652  -3.3398  -4.8408   0.00    0.0
2014/03/17 00:14:00.000   47.067141494   15.493483288   543.6250   5   7   6.1482   4.1481   9.9453   3.8554  -3.2899  -4.8112   0.00    0.0
2014/03/17 00:14:30.000   47.067138603   15.493481216   543.9767   5   7   6.1471   4.1417   9.9451   3.8458  -3.2390  -4.7813   0.00    0.0
2014/03/17 00:15:00.000   47.067137460   15.493479560   544.0153   5   7   6.1461   4.1355   9.9449   3.8363  -3.1871  -4.7511   0.00    0.0
2014/03/17 00:15:30.000   47.067138004   15.493480915   544.0216   5   7   6.1452   4.1295   9.9448   3.8269  -3.1343  -4.7206   0.00    0.0
2014/03/17 00:16:00.000   47.067139708   15.493482210   543.7728   5   7   6.1443   4.1238   9.9446   3.8176  -3.0803  -4.6898   0.00    0.0
2014/03/17 00:16:30.000   47.067144038   15.493483892   543.4619   5   7   6.1436   4.1183   9.9445   3.8084  -3.0252  -4.6587   0.00    0.0
2014/03/17 00:17:00.000   47.067146598   15.493486296   543.4943   5   7   6.1429   4.1131   9.9445   3.7994  -2.9690  -4.6272   0.00    0.0
2014/03/17 00:17:30.000   47.067146361   15.493489172   543.4569   5   7   6.1424   4.1081   9.9445   3.7905  -2.9115  -4.5955   0.00    0.0
2014/03/17 00:18:00.000   47.067146630   15.493490204   543.2660   5   7   6.1419   4.1033   9.9445   3.7818  -2.8526  -4.5634   0.00    0.0
2014/03/17 00:18:30.000   47.067147409   15.493491131   543.0752   5   7   6.1416   4.0988   9.9446   3.7731  -2.7924  -4.5310   0.00    0.0
2014/03/17 00:19:00.000   47.067147428   15.493490898   543.1319   5   7   6.1413   4.0945   9.9447   3.7647  -2.7308  -4.4984   0.00    0.0
2014/03/17 00:19:30.000   47.067148559   15.493491904   543.0199   5   7   6.1412   4.0905   9.9449   3.7563  -2.6675  -4.4654   0.00    0.0
2014/03/17 00:20:00.000   47.067152488   15.493495625   542.4380   5   7   6.1411   4.0867   9.9451   3.7482  -2.6026  -4.4322   0.00    0.0
2014/03/17 00:20:30.000   47.067150278   15.493493636   542.7830   5   7   6.1412   4.0832   9.9454   3.7401  -2.5359  -4.3987   0.00    0.0
2014/03/17 00:21:00.000   47.067143487   15.493485865   543.3080   5   7   6.1413   4.0799   9.9458   3.7322  -2.4672  -4.3648   0.00    0.0
2014/03/17 00:21:30.000   47.067138592   15.493479800   544.0009   5   7   6.1416   4.0769   9.9462   3.7245  -2.3964  -4.3307   0.00    0.0
2014/03/17 00:22:00.000   47.067137358   15.493477721   544.3936   5   7   6.1420   4.0742   9.9467   3.7169  -2.3233  -4.2963   0.00    0.0
2014/03/17 00:22:30.000   47.067138501   15.493476855   544.2806   5   7   6.1424   4.0717   9.9472   3.7094  -2.2478  -4.2616   0.00    0.0
2014/03/17 00:23:00.000   47.067139688   15.493477422   544.2180   5   7   6.1430   4.0694   9.9478   3.7021  -2.1694  -4.2267   0.00    0.0
2014/03/17 00:23:30.000   47.067138681   15.493476380   544.3561   5   7   6.1437   4.0675   9.9485   3.6950  -2.0881  -4.1914   0.00    0.0
2014/03/17 00:24:00.000   47.067139492   15.493475156   543.9168   5   7   6.1445   4.0658   9.9493   3.6880  -2.0032  -4.1559   0.00    0.0
2014/03/17 00:24:30.000   47.067138938   15.493473817   543.6715   5   7   6.1454   4.0644   9.9501   3.6812  -1.9145  -4.1201   0.00    0.0
2014/03/17 00:25:00.000   47.067141580   15.493478073   543.5667   5   7   6.1464   4.0632   9.9510   3.6745  -1.8214  -4.0841   0.00    0.0
2014/03/17 00:25:30.000   47.067143464   15.493483065   543.5773   5   7   6.1475   4.0623   9.9520   3.6679  -1.7231  -4.0478   0.00    0.0
2014/03/17 00:26:00.000   47.067144602   15.493485342   543.8175   5   7   6.1487   4.0617   9.9531   3.6616  -1.6188  -4.0112   0.00    0.0
2014/03/17 00:26:30.000   47.067143855   15.493485999   543.9832   5   7   6.1501   4.0613   9.9542   3.6553  -1.5072  -3.9744   0.00    0.0
2014/03/17 00:27:00.000   47.067143698   15.493486992   544.2166   5   7   6.1515   4.0612   9.9554   3.6492  -1.3864  -3.9373   0.00    0.0
2014/03/17 00:27:30.000   47.067145483   15.493488333   544.2253   5   7   6.1530   4.0614   9.9567   3.6433  -1.2541  -3.9000   0.00    0.0
2014/03/17 00:28:00.000   47.067147305   15.493490992   543.6341   5   7   6.1546   4.0619   9.9581   3.6375  -1.1058  -3.8625   0.00    0.0
2014/03/17 00:28:30.000   47.067150113   15.493496159   543.0059   5   7   6.1563   4.0626   9.9595   3.6318  -0.9343  -3.8247   0.00    0.0
2014/03/17 00:29:00.000   47.067148965   15.493495682   543.1911   5   7   6.1582   4.0635   9.9610   3.6263  -0.7230  -3.7867   0.00    0.0
2014/03/17 00:29:30.000   47.067145109   15.493490092   543.8969   5   7   6.1601   4.0648   9.9626   3.6209  -0.4154  -3.7484   0.00    0.0
2014/03/17 00:30:00.000   47.067140735   15.493483957   544.4262   5   7   6.1621   4.0663   9.9642   3.6157   0.4216  -3.7100   0.00    0.0
2014/03/17 00:30:30.000   47.067140807   15.493483743   544.4311   5   7   6.1642   4.0680   9.9659   3.6106   0.7267  -3.6713   0.00    0.0
2014/03/17 00:31:00.000   47.067140825   15.493484191   544.4031   5   7   6.1664   4.0701   9.9677   3.6056   0.9373  -3.6324   0.00    0.0
2014/03/17 00:31:30.000   47.067140824   15.493483623   544.4810   5   7   6.1687   4.0724   9.9695   3.6007   1.1085  -3.5934   0.00    0.0
2014/03/17 00:32:00.000   47.067141465   15.493483051   544.4028   5   7   6.1710   4.0749   9.9714   3.5960   1.2566  -3.5541   0.00    0.0
2014/03/17 00:32:30.000   47.067144865   15.493485974   543.4937   5   7   6.1735   4.0777   9.9734   3.5914   1.3889  -3.5147   0.00    0.0
2014/03/17 00:33:00.000   47.067147121   15.493488737   542.8028   5   7   6.1760   4.0808   9.9754   3.5869   1.5096  -3.4751   0.00    0.0
2014/03/17 00:33:30.000   47.067141165   15.493481309   544.4547   5   6   8.1358   7.0949  17.6130   6.5986  -9.0320  -9.4142   0.00    0.0
2014/03/17 00:34:00.000   47.067140842   15.493482883   544.6151   5   6   8.0717   7.0284  17.6198   6.5178  -8.9469  -9.3224   0.00    0.0
2014/03/17 00:34:30.000   47.067141152   15.493482814   544.5699   5   6   8.0091   6.9632  17.6295   6.4381  -8.8628  -9.2313   0.00    0.0
2014/03/17 00:35:00.000   47.067142997   15.493482116   544.5896   5   6   7.9478   6.8993  17.6420   6.3596  -8.7796  -9.1410   0.00    0.0
2014/03/17 00:35:30.000   47.067142462   15.493480432   545.0057   5   6   7.8879   6.8366  17.6574   6.2821  -8.6974  -9.0514   0.00    0.0
2014/03/17 00:36:00.000   47.067140555   15.493478543   545.5833   5   6   7.8294   6.7751  17.6756   6.2057  -8.6160  -8.9624   0.00    0.0
2014/03/17 00:36:30.000   47.067140104   15.493478333   545.5226   5   6   7.7722   6.7147  17.6967   6.1303  -8.5354  -8.8740   0.00    0.0
2014/03/17 00:37:00.000   47.067141689   15.493477815   545.3171   5   6   7.7164   6.6556  17.7207   6.0560  -8.4556  -8.7862   0.00    0.0
2014/03/17 00:37:30.000   47.067143958   15.493479204   545.0324   5   6   7.6618   6.5976  17.7476   5.9826  -8.3766  -8.6989   0.00    0.0
2014/03/17 00:38:00.000   47.067145370   15.493482518   544.9467   5   6   7.6085   6.5406  17.7774   5.9102  -8.2983  -8.6120   0.00    0.0
2014/03/17 00:38:30.000   47.067144624   15.493483443   544.6269   5   6   7.5565   6.4848  17.8102   5.8387  -8.2206  -8.5254   0.00    0.0
2014/03/17 00:39:00.000   47.067144594   15.493484072   544.6162   5   6   7.5057   6.4301  17.8459   5.7682  -8.1436  -8.4393   0.00    0.0
2014/03/17 00:39:30.000   47.067142162   15.493481177   545.1733   5   6   7.4561   6.3764  17.8847   5.6985  -8.0671  -8.3534   0.00    0.0
2014/03/17 00:40:00.000   47.067142503   15.493479858   545.2688   5   6   7.4077   6.3238  17.9265   5.6297  -7.9911  -8.2677   0.00    0.0
2014/03/17 00:40:30.000   47.067141814   15.493479524   545.1498   5   6   7.3606   6.2721  17.9713   5.5618  -7.9157  -8.1822   0.00    0.0
2014/03/17 00:41:00.000   47.067139878   15.493479071   545.5866   5   6   7.3146   6.2215  18.0191   5.4947  -7.8407  -8.0968   0.00    0.0
2014/03/17 00:41:30.000   47.067137174   15.493477501   545.7175   5   6   7.2697   6.1718  18.0701   5.4284  -7.7661  -8.0114   0.00    0.0
2014/03/17 00:42:00.000   47.067137377   15.493478008   545.2665   5   6   7.2260   6.1232  18.1242   5.3630  -7.6918  -7.9260   0.00    0.0
2014/03/17 00:42:30.000   47.067138288   15.493477149   545.4808   5   6   7.1835   6.0754  18.1815   5.2983  -7.6178  -7.8406   0.00    0.0
2014/03/17 00:43:00.000   47.067139254   15.493477037   545.9134   5   6   7.1420   6.0286  18.2419   5.2343  -7.5441  -7.7549   0.00    0.0
2014/03/17 00:43:30.000   47.067138237   15.493476308   546.4615   5   6   7.1017   5.9827  18.3056   5.1711  -7.4706  -7.6690   0.00    0.0
2014/03/17 00:44:00.000   47.067137674   15.493475946   546.8865   5   6   7.0625   5.9378  18.3726   5.1087  -7.3972  -7.5829   0.00    0.0
2014/03/17 00:44:30.000   47.067134721   15.493476605   546.3434   5   6   7.0243   5.8937  18.4429   5.0469  -7.3239  -7.4963   0.00    0.0
2014/03/17 00:45:00.000   47.067135376   15.493477244   546.2409   5   6   6.9872   5.8504  18.5165   4.9859  -7.2506  -7.4092   0.00    0.0
2014/03/17 00:45:30.000   47.067135880   15.493475536   546.5472   5   6   6.9512   5.8081  18.5935   4.9255  -7.1773  -7.3216   0.00    0.0
2014/03/17 00:46:00.000   47.067136300   15.493472738   546.5643   5   6   6.9163   5.7666  18.6739   4.8658  -7.1038  -7.2334   0.00    0.0
2014/03/17 00:46:30.000   47.067134227   15.493470923   546.8539   5   6   6.8824   5.7259  18.7579   4.8067  -7.0302  -7.1443   0.00    0.0
2014/03/17 00:47:00.000   47.067132208   15.493471814   546.9303   5   6   6.8495   5.6861  18.8453   4.7483  -6.9564  -7.0545   0.00    0.0
2014/03/17 00:47:30.000   47.067131873   15.493474030   546.3826   5   6   6.8177   5.6471  18.9364   4.6905  -6.8822  -6.9636   0.00    0.0
2014/03/17 00:48:00.000   47.067133225   15.493475942   545.5026   5   6   6.7869   5.6089  19.0310   4.6334  -6.8077  -6.8717   0.00    0.0
2014/03/17 00:48:30.000   47.067136437   15.493475678   544.7190   5   6   6.7571   5.5715  19.1294   4.5768  -6.7327  -6.7786   0.00    0.0
2014/03/17 00:49:00.000   47.067138485   15.493476026   543.8605   5   6   6.7283   5.5348  19.2315   4.5209  -6.6571  -6.6842   0.00    0.0
2014/03/17 00:49:30.000   47.067139288   15.493477596   544.2232   5   6   6.7006   5.4990  19.3374   4.4656  -6.5809  -6.5883   0.00    0.0
2014/03/17 00:50:00.000   47.067142892   15.493478977   545.2683   5   6   6.6738   5.4639  19.4471   4.4108  -6.5039  -6.4907   0.00    0.0
2014/03/17 00:50:30.000   47.067142929   15.493479915   545.6418   5   6   6.6481   5.4296  19.5608   4.3566  -6.4261  -6.3914   0.00    0.0
2014/03/17 00:51:00.000   47.067142265   15.493481809   545.0230   5   6   6.6233   5.3961  19.6784   4.3030  -6.3473  -6.2901   0.00    0.0
2014/03/17 00:51:30.000   47.067144645   15.493483678   543.7696   5   6   6.5996   5.3634  19.8001   4.2500  -6.2675  -6.1867   0.00    0.0
2014/03/17 00:52:00.000   47.067145821   15.493483079   543.3763   5   6   6.5768   5.3313  19.9258   4.1975  -6.1865  -6.0809   0.00    0.0
2014/03/17 00:52:30.000   47.067144580   15.493481876   544.8657   5   6   6.5551   5.3001  20.0558   4.1456  -6.1041  -5.9725   0.00    0.0
2014/03/17 00:53:00.000   47.067144064   15.493480703   545.3889   5   7   6.3524   5.2695  12.8179   4.0970  -6.0391  -3.2362   0.00    0.0
2014/03/17 00:53:30.000   47.067144153   15.493479105   545.5129   5   7   6.3419   5.2395  12.8606   4.0531  -6.0032  -3.0939   0.00    0.0
2014/03/17 00:54:00.000   47.067143727   15.493476384   545.3014   5   7   6.3322   5.2100  12.9049   4.0095  -5.9678  -2.9444   0.00    0.0
2014/03/17 00:54:30.000   47.067142927   15.493473782   545.6977   5   7   6.3233   5.1809  12.9508   3.9663  -5.9326  -2.7864   0.00    0.0
2014/03/17 00:55:00.000   47.067142286   15.493472884   546.2596   5   7   6.3154   5.1522  12.9983   3.9235  -5.8977  -2.6181   0.00    0.0
2014/03/17 00:55:30.000   47.067141762   15.493474139   546.7920   5   7   6.3082   5.1241  13.0474   3.8810  -5.8632  -2.4375   0.00    0.0
2014/03/17 00:56:00.000   47.067139513   15.493474023   547.0722   5   7   6.3019   5.0963  13.0981   3.8388  -5.8289  -2.2415   0.00    0.0
2014/03/17 00:56:30.000   47.067137931   15.493474024   547.0628   5   7   6.2965   5.0690  13.1505   3.7970  -5.7948  -2.0254   0.00    0.0
2014/03/17 00:57:00.000   47.067138186   15.493474936   546.6205   5   7   6.2918   5.0421  13.2045   3.7555  -5.7610  -1.7820   0.00    0.0
2014/03/17 00:57:30.000   47.067137911   15.493476977   545.7811   5   7   6.2880   5.0156  13.2601   3.7143  -5.7273  -1.4976   0.00    0.0
2014/03/17 00:58:00.000   47.067137233   15.493477521   545.2032   5   7   6.2851   4.9896  13.3174   3.6734  -5.6939  -1.1421   0.00    0.0
2014/03/17 00:58:30.000   47.067138240   15.493477144   544.9650   5   7   6.2830   4.9639  13.3762   3.6329  -5.6606  -0.5998   0.00    0.0
2014/03/17 00:59:00.000   47.067137700   15.493476617   544.7491   5   7   6.2817   4.9386  13.4367   3.5927  -5.6275   0.7692   0.00    0.0
2014/03/17 00:59:30.000   47.067138113   15.493475862   545.1661   5   7   6.2812   4.9138  13.4988   3.5527  -5.5945   1.2450   0.00    0.0
2014/03/17 01:00:00.000   47.067136590   15.493475368   545.4477   5   7   6.2815   4.8893  13.5626   3.5131  -5.5616   1.5862   0.00    0.0
2014/03/17 01:00:30.000   47.067137296   15.493476107   545.4513   5   7   6.2827   4.8651  13.6279   3.4738  -5.5288   1.8681   0.00    0.0
2014/03/17 01:01:00.000   47.067139168   15.493479874   545.3346   5   7   6.2846   4.8414  13.6949   3.4348  -5.4961   2.1146   0.00    0.0
2014/03/17 01:01:30.000   47.067140674   15.493480923   545.1374   5   7   6.2874   4.8180  13.7635   3.3961  -5.4633   2.3371   0.00    0.0
2014/03/17 01:02:00.000   47.067143096   15.493480678   545.0818   5   7   6.2910   4.7950  13.8336   3.3577  -5.4306   2.5419   0.00    0.0
2014/03/17 01:02:30.000   47.067142355   15.493479325   545.3904   5   7   6.2953   4.7723  13.9054   3.3196  -5.3978   2.7331   0.00    0.0
2014/03/17 01:03:00.000   47.067142242   15.493478571   545.5198   5   7   6.3005   4.7500  13.9787   3.2818  -5.3650   2.9134   0.00    0.0
2014/03/17 01:03:30.000   47.067142892   15.493476352   546.0419   5   7   6.3065   4.7281  14.0536   3.2443  -5.3322   3.0847   0.00    0.0
2014/03/17 01:04:00.000   47.067140554   15.493475341   546.0204   5   7   6.3132   4.7064  14.1301   3.2071  -5.2992   3.2486   0.00    0.0
2014/03/17 01:04:30.000   47.067138537   15.493477103   545.3542   5   7   6.3207   4.6851  14.2081   3.1702  -5.2661   3.4060   0.00    0.0
2014/03/17 01:05:00.000   47.067138353   15.493480871   544.4791   5   7   6.3290   4.6642  14.2876   3.1337  -5.2328   3.5580   0.00    0.0
2014/03/17 01:05:30.000   47.067139420   15.493482446   544.2464   5   7   6.3381   4.6436  14.3686   3.0975  -5.1993   3.7052   0.00    0.0
2014/03/17 01:06:00.000   47.067141323   15.493484832   544.4927   5   7   6.3479   4.6232  14.4510   3.0616  -5.1655   3.8481   0.00    0.0
2014/03/17 01:06:30.000   47.067144035   15.493489364   544.4211   5   7   6.3585   4.6033  14.5349   3.0260  -5.1315   3.9873   0.00    0.0
2014/03/17 01:07:00.000   47.067143832   15.493492028   544.1032   5   7   6.3698   4.5836  14.6203   2.9908  -5.0972   4.1232   0.00    0.0
2014/03/17 01:07:30.000   47.067145427   15.493491238   544.1531   5   7   6.3818   4.5642  14.7070   2.9560  -5.0625   4.2560   0.00    0.0
2014/03/17 01:08:00.000   47.067144770   15.493487709   543.7799   5   7   6.3945   4.5452  14.7950   2.9215  -5.0275   4.3860   0.00    0.0
2014/03/17 01:08:30.000   47.067146011   15.493484400   543.9357   5   7   6.4080   4.5264  14.8844   2.8874  -4.9920   4.5136   0.00    0.0
2014/03/17 01:09:00.000   47.067144997   15.493482126   544.4533   5   7   6.4221   4.5080  14.9750   2.8537  -4.9561   4.6388   0.00    0.0
2014/03/17 01:09:30.000   47.067144194   15.493479289   545.5682   5   7   6.4369   4.4899  15.0668   2.8204  -4.9196   4.7619   0.00    0.0
2014/03/17 01:10:00.000   47.067143350   15.493477076   546.2554   5   7   6.4524   4.4720  15.1598   2.7875  -4.8826   4.8829   0.00    0.0
2014/03/17 01:10:30.000   47.067144353   15.493478797   546.1720   5   7   6.4685   4.4545  15.2539   2.7550  -4.8449   5.0021   0.00    0.0
2014/03/17 01:11:00.000   47.067145119   15.493482268   545.2250   5   7   6.4853   4.4373  15.3490   2.7231  -4.8066   5.1195   0.00    0.0
2014/03/17 01:11:30.000   47.067146868   15.493484508   545.0868   5   7   6.5027   4.4203  15.4451   2.6915  -4.7676   5.2352   0.00    0.0
2014/03/17 01:12:00.000   47.067149144   15.493486455   545.4219   5   7   6.5206   4.4037  15.5421   2.6605  -4.7278   5.3493   0.00    0.0
2014/03/17 01:12:30.000   47.067149159   15.493488101   545.6317   5   7   6.5391   4.3873  15.6400   2.6300  -4.6872   5.4618   0.00    0.0
2014/03/17 01:13:00.000   47.067146632   15.493487694   545.6095   5   7   6.5582   4.3713  15.7385   2.6000  -4.6457   5.5728   0.00    0.0
2014/03/17 01:13:30.000   47.067144938   15.493484807   544.7397   5   7   6.5777   4.3555  15.8377   2.5705  -4.6033   5.6823   0.00    0.0
2014/03/17 01:14:00.000   47.067145633   15.493482209   545.0096   5   7   6.5978   4.3401  15.9375   2.5417  -4.5598   5.7904   0.00    0.0
2014/03/17 01:14:30.000   47.067147026   15.493481174   545.3379   5   7   6.6183   4.3249  16.0378   2.5134  -4.5153   5.8969   0.00    0.0
2014/03/17 01:15:00.000   47.067148372   15.493480510   546.0977   5   7   6.6392   4.3100  16.1383   2.4858  -4.4696   6.0020   0.00    0.0
2014/03/17 01:15:30.000   47.067149968   15.493480719   545.8201   5   7   6.6606   4.2954  16.2392   2.4588  -4.4228   6.1057   0.00    0.0
2014/03/17 01:16:00.000   47.067151039   15.493481513   545.6486   5   7   6.6822   4.2812  16.3401   2.4325  -4.3746   6.2078   0.00    0.0
2014/03/17 01:16:30.000   47.067151316   15.493480864   546.1826   5   7   6.7043   4.2672  16.4410   2.4068  -4.3251   6.3084   0.00    0.0
2014/03/17 01:17:00.000   47.067149998   15.493478282   546.7907   5   7   6.7265   4.2535  16.5418   2.3820  -4.2741   6.4075   0.00    0.0
2014/03/17 01:17:30.000   47.067148488   15.493477117   546.9899   5   7   6.7491   4.2402  16.6423   2.3578  -4.2216   6.5050   0.00    0.0
2014/03/17 01:18:00.000   47.067148029   15.493475530   547.0558   5   7   6.7718   4.2271  16.7423   2.3344  -4.1675   6.6009   0.00    0.0
2014/03/17 01:18:30.000   47.067145972   15.493474950   546.6186   5   7   6.7947   4.2144  16.8418   2.3118  -4.1116   6.6951   0.00    0.0
2014/03/17 01:19:00.000   47.067146524   15.493475620   545.7324   5   7   6.8177   4.2019  16.9405   2.2901  -4.0540   6.7875   0.00    0.0
2014/03/17 01:19:30.000   47.067147689   15.493477908   545.0664   5   7   6.8407   4.1898  17.0384   2.2692  -3.9944   6.8781   0.00    0.0
2014/03/17 01:20:00.000   47.067149010   15.493479046   545.0192   5   7   6.8637   4.1780  17.1351   2.2491  -3.9329   6.9668   0.00    0.0
2014/03/17 01:20:30.000   47.067148598   15.493482055   544.9364   5   7   6.8867   4.1666  17.2306   2.2299  -3.8692   7.0535   0.00    0.0
2014/03/17 01:21:00.000   47.067149418   15.493484282   545.1730   5   7   6.9096   4.1555  17.3246   2.2116  -3.8032   7.1382   0.00    0.0
2014/03/17 01:21:30.000   47.067152155   15.493485526   545.3639   5   7   6.9324   4.1447  17.4170   2.1942  -3.7349   7.2208   0.00    0.0
2014/03/17 01:22:00.000   47.067151837   15.493484620   545.2719   5   7   6.9549   4.1342  17.5076   2.1777  -3.6641   7.3011   0.00    0.0
2014/03/17 01:22:30.000   47.067150886   15.493482039   545.2583   5   7   6.9771   4.1241  17.5962   2.1621  -3.5906   7.3791   0.00    0.0
2014/03/17 01:23:00.000   47.067150093   15.493479419   544.2985   5   7   6.9991   4.1144  17.6826   2.1474  -3.5143   7.4547   0.00    0.0
2014/03/17 01:23:30.000   47.067149365   15.493476754   543.8525   5   7   7.0206   4.1050  17.7666   2.1336  -3.4350   7.5277   0.00    0.0
2014/03/17 01:24:00.000   47.067153165   15.493475279   544.6932   5   7   7.0417   4.0960  17.8479   2.1207  -3.3526   7.5981   0.00    0.0
2014/03/17 01:24:30.000   47.067151702   15.493475314   544.7860   5   7   7.0622   4.0874  17.9265   2.1087  -3.2667   7.6658   0.00    0.0
2014/03/17 01:25:00.000   47.067151786   15.493474546   545.1501   5   7   7.0822   4.0791  18.0020   2.0976  -3.1772   7.7306   0.00    0.0
2014/03/17 01:25:30.000   47.067152619   15.493474496   545.4056   5   7   7.1016   4.0712  18.0743   2.0873  -3.0839   7.7925   0.00    0.0
2014/03/17 01:26:00.000   47.067151868   15.493477092   546.1926   5   7   7.1203   4.0637  18.1432   2.0779  -2.9863   7.8514   0.00    0.0
2014/03/17 01:26:30.000   47.067149792   15.493479696   546.8450   5   7   7.1382   4.0566  18.2086   2.0692  -2.8842   7.9071   0.00    0.0
2014/03/17 01:27:00.000   47.067145135   15.493480490   545.7535   5   7   7.1553   4.0499  18.2701   2.0612  -2.7771   7.9595   0.00    0.0
2014/03/17 01:27:30.000   47.067142175   15.493480072   544.7170   5   7   7.1716   4.0436  18.3277   2.0540  -2.6645   8.0086   0.00    0.0
2014/03/17 01:28:00.000   47.067140414   15.493478449   544.2185   5   7   7.1869   4.0377  18.3811   2.0474  -2.5458   8.0543   0.00    0.0
2014/03/17 01:28:30.000   47.067139459   15.493478252   544.0533   5   7   7.2013   4.0322  18.4303   2.0414  -2.4202   8.0964   0.00    0.0
2014/03/17 01:29:00.000   47.067137844   15.493477435   543.6014   5   7   7.2147   4.0271  18.4750   2.0359  -2.2867   8.1349   0.00    0.0
2014/03/17 01:29:30.000   47.067139241   15.493477135   543.7235   5   7   7.2270   4.0224  18.5150   2.0309  -2.1440   8.1697   0.00    0.0
2014/03/17 01:30:00.000   47.067141017   15.493479429   543.9769   5   7   7.2382   4.0182  18.5504   2.0263  -1.9903   8.2008   0.00    0.0
2014/03/17 01:30:30.000   47.067143857   15.493481238   544.4046   5   7   7.2483   4.0144  18.5809   2.0221  -1.8230   8.2280   0.00    0.0
2014/03/17 01:31:00.000   47.067145930   15.493481728   544.7489   5   7   7.2572   4.0110  18.6064   2.0181  -1.6382   8.2513   0.00    0.0
2014/03/17 01:31:30.000   47.067146160   15.493480935   544.7786   5   7   7.2650   4.0080  18.6268   2.0143  -1.4293   8.2707   0.00    0.0
2014/03/17 01:32:00.000   47.067147113   15.493480545   544.3999   5   7   7.2715   4.0054  18.6422   2.0106  -1.1842   8.2860   0.00    0.0
2014/03/17 01:32:30.000   47.067148722   15.493481459   544.6570   5   7   7.2767   4.0033  18.6523   2.0069  -0.8731   8.2974   0.00    0.0
2014/03/17 01:33:00.000   47.067150501   15.493483923   544.7287   5   7   7.2807   4.0016  18.6572   2.0032  -0.3518   8.3047   0.00    0.0
2014/03/17 01:33:30.000   47.067152942   15.493484059   545.2295   5   7   7.2835   4.0003  18.6569   1.9993   0.7158   8.3079   0.00    0.0
2014/03/17 01:34:00.000   47.067153096   15.493483097   545.6032   5   7   7.2850   3.9994  18.6512   1.9953   1.0702   8.3071   0.00    0.0
2014/03/17 01:34:30.000   47.067153435   15.493483920   545.2920   5   7   7.2852   3.9989  18.6403   1.9909   1.3321   8.3023   0.00    0.0
2014/03/17 01:35:00.000   47.067152435   15.493484838   544.7412   5   7   7.2842   3.9988  18.6242   1.9862   1.5488   8.2933   0.00    0.0
2014/03/17 01:35:30.000   47.067151663   15.493485123   544.3019   5   7   7.2819   3.9992  18.6028   1.9810   1.7371   8.2804   0.00    0.0
2014/03/17 01:36:00.000   47.067149279   15.493482733   543.9527   5   7   7.2784   3.9999  18.5763   1.9753   1.9053   8.2635   0.00    0.0
2014/03/17 01:36:30.000   47.067147007   15.493481701   543.9050   5   7   7.2736   4.0011  18.5448   1.9690   2.0580   8.2426   0.00    0.0
2014/03/17 01:37:00.000   47.067145026   15.493480852   543.8816   5   7   7.2677   4.0026  18.5082   1.9619   2.1985   8.2179   0.00    0.0
2014/03/17 01:37:30.000   47.067144087   15.493479164   543.4864   5   7   7.2607   4.0045  18.4668   1.9542   2.3287   8.1893   0.00    0.0
2014/03/17 01:38:00.000   47.067143890   15.493477199   543.2206   5   7   7.2525   4.0068  18.4206   1.9456   2.4502   8.1569   0.00    0.0
2014/03/17 01:38:30.000   47.067142248   15.493477653   542.7718   5   7   7.2432   4.0094  18.3698   1.9360   2.5641   8.1209   0.00    0.0
2014/03/17 01:39:00.000   47.067141936   15.493481135   542.9026   5   7   7.2330   4.0125  18.3144   1.9256   2.6713   8.0812   0.00    0.0
2014/03/17 01:39:30.000   47.067140856   15.493485755   543.0248   5   7   7.2217   4.0158  18.2548   1.9140   2.7725   8.0380   0.00    0.0
2014/03/17 01:40:00.000   47.067140307   15.493488868   543.4681   5   7   7.2094   4.0195  18.1910   1.9014   2.8682   7.9914   0.00    0.0
2014/03/17 01:40:30.000   47.067142705   15.493489353   544.6099   5   7   7.1963   4.0236  18.1231   1.8876   2.9590   7.9415   0.00    0.0
2014/03/17 01:41:00.000   47.067142965   15.493485582   544.8859   5   7   7.1824   4.0280  18.0515   1.8725   3.0452   7.8883   0.00    0.0
2014/03/17 01:41:30.000   47.067145199   15.493484127   543.8423   5   7   7.1676   4.0327  17.9761   1.8561   3.1272   7.8320   0.00    0.0
2014/03/17 01:42:00.000   47.067146180   15.493484234   543.1797   5   7   7.1521   4.0377  17.8974   1.8384   3.2053   7.7727   0.00    0.0
2014/03/17 01:42:30.000   47.067148144   15.493484207   543.1888   5   7   7.1360   4.0431  17.8154   1.8192   3.2796   7.7104   0.00    0.0
2014/03/17 01:43:00.000   47.067147926   15.493481636   543.4001   5   7   7.1192   4.0487  17.7303   1.7985   3.3506   7.6454   0.00    0.0
2014/03/17 01:43:30.000   47.067150303   15.493483548   544.4910   5   7   7.1019   4.0546  17.6424   1.7762   3.4183   7.5777   0.00    0.0
2014/03/17 01:44:00.000   47.067149260   15.493485640   544.9394   5   7   7.0841   4.0609  17.5518   1.7523   3.4829   7.5074   0.00    0.0
2014/03/17 01:44:30.000   47.067144377   15.493485449   544.8500   5   7   7.0659   4.0674  17.4587   1.7266   3.5447   7.4346   0.00    0.0
2014/03/17 01:45:00.000   47.067140579   15.493484858   544.6124   5   7   7.0472   4.0742  17.3634   1.6991   3.6039   7.3595   0.00    0.0
2014/03/17 01:45:30.000   47.067142125   15.493485436   544.9175   5   7   7.0283   4.0813  17.2660   1.6697   3.6604   7.2821   0.00    0.0
2014/03/17 01:46:00.000   47.067142288   15.493486022   545.0506   5   7   7.0091   4.0886  17.1667   1.6383   3.7146   7.2026   0.00    0.0
2014/03/17 01:46:30.000   47.067143122   15.493484564   544.9764   5   7   6.9897   4.0962  17.0657   1.6048   3.7665   7.1210   0.00    0.0
2014/03/17 01:47:00.000   47.067142757   15.493484331   544.3306   5   7   6.9701   4.1041  16.9632   1.5690   3.8162   7.0374   0.00    0.0
2014/03/17 01:47:30.000   47.067144346   15.493481892   543.7829   5   7   6.9505   4.1122  16.8594   1.5308   3.8639   6.9520   0.00    0.0
2014/03/17 01:48:00.000   47.067143667   15.493482436   542.8832   5   7   6.9307   4.1206  16.7545   1.4901   3.9097   6.8649   0.00    0.0
2014/03/17 01:48:30.000   47.067140377   15.493480724   543.1135   5   7   6.9110   4.1292  16.6485   1.4465   3.9537   6.7760   0.00    0.0
2014/03/17 01:49:00.000   47.067138775   15.493479459   542.8965   5   7   6.8914   4.1380  16.5418   1.4000   3.9959   6.6856   0.00    0.0
2014/03/17 01:49:30.000   47.067139233   15.493474734   543.0830   5   7   6.8718   4.1472  16.4344   1.3501   4.0366   6.5936   0.00    0.0
2014/03/17 01:50:00.000   47.067139671   15.493474812   542.7423   5   7   6.8524   4.1565  16.3264   1.2965   4.0757   6.5001   0.00    0.0
2014/03/17 01:50:30.000   47.067141698   15.493476990   542.6463   5   7   6.8331   4.1661  16.2181   1.2389   4.1134   6.4053   0.00    0.0
2014/03/17 01:51:00.000   47.067144728   15.493476766   542.1513   5   7   6.8141   4.1760  16.1096   1.1765   4.1497   6.3091   0.00    0.0
2014/03/17 01:51:30.000   47.067149110   15.493477073   542.5169   5   7   6.7953   4.1860  16.0010   1.1087   4.1847   6.2116   0.00    0.0
2014/03/17 01:52:00.000   47.067151933   15.493476975   543.3708   5   7   6.7768   4.1963  15.8924   1.0344   4.2186   6.1129   0.00    0.0
2014/03/17 01:52:30.000   47.067150749   15.493477335   543.5210   5   7   6.7586   4.2069  15.7839   0.9521   4.2513   6.0131   0.00    0.0
2014/03/17 01:53:00.000   47.067147960   15.493479326   543.1602   5   7   6.7408   4.2177  15.6757   0.8595   4.2830   5.9120   0.00    0.0
2014/03/17 01:53:30.000   47.067144703   15.493480889   542.5924   5   7   6.7234   4.2287  15.5679   0.7530   4.3136   5.8098   0.00    0.0
2014/03/17 01:54:00.000   47.067144061   15.493482343   542.4400   5   7   6.7063   4.2400  15.4605   0.6255   4.3434   5.7065   0.00    0.0
2014/03/17 01:54:30.000   47.067145178   15.493483811   542.5211   5   7   6.6897   4.2515  15.3537   0.4599   4.3723   5.6021   0.00    0.0
2014/03/17 01:55:00.000   47.067146288   15.493485565   542.6222   5   7   6.6736   4.2632  15.2475   0.1670   4.4004   5.4966   0.00    0.0
2014/03/17 01:55:30.000   47.067146987   15.493487641   543.4439   5   7   6.6579   4.2752  15.1420  -0.3995   4.4277   5.3900   0.00    0.0
2014/03/17 01:56:00.000   47.067145434   15.493488813   544.0821   5   7   6.6428   4.2874  15.0372  -0.5923   4.4544   5.2823   0.00    0.0
2014/03/17 01:56:30.000   47.067144180   15.493488096   544.0107   5   7   6.6281   4.2999  14.9334  -0.7387   4.4804   5.1734   0.00    0.0
2014/03/17 01:57:00.000   47.067143178   15.493487756   543.5005   5   7   6.6140   4.3126  14.8304  -0.8627   4.5058   5.0634   0.00    0.0
2014/03/17 01:57:30.000   47.067141571   15.493484360   542.7589   5   7   6.6004   4.3256  14.7284  -0.9729   4.5307   4.9522   0.00    0.0
2014/03/17 01:58:00.000   47.067139281   15.493478723   542.2218   5   7   6.5874   4.3388  14.6274  -1.0734   4.5550   4.8398   0.00    0.0
2014/03/17 01:58:30.000   47.067140183   15.493478408   542.4495   5   7   6.5750   4.3523  14.5275  -1.1668   4.5789   4.7261   0.00    0.0
2014/03/17 01:59:00.000   47.067141584   15.493479270   542.6564   5   7   6.5631   4.3660  14.4287  -1.2547   4.6024   4.6110   0.00    0.0
2014/03/17 01:59:30.000   47.067143362   15.493481692   542.3858   5   7   6.5518   4.3800  14.3311  -1.3380   4.6255   4.4944   0.00    0.0
2014/03/17 02:00:00.000   47.067144533   15.493482195   542.0527   5   7   6.5411   4.3942  14.2346  -1.4177   4.6482   4.3763   0.00    0.0
2014/03/17 02:00:30.000   47.067141938   15.493482257   541.7325   5   7   6.5311   4.4087  14.1393  -1.4943   4.6706   4.2565   0.00    0.0
2014/03/17 02:01:00.000   47.067139542   15.493482531   541.5096   5   7   6.5216   4.4235  14.0453  -1.5681   4.6927   4.1348   0.00    0.0
2014/03/17 02:01:30.000   47.067139392   15.493481132   541.6123   5   7   6.5127   4.4385  13.9526  -1.6397   4.7146   4.0112   0.00    0.0
2014/03/17 02:02:00.000   47.067140058   15.493479085   541.8155   5   7   6.5045   4.4538  13.8611  -1.7092   4.7362   3.8854   0.00    0.0
2014/03/17 02:02:30.000   47.067143754   15.493479495   541.8021   5   7   6.4968   4.4694  13.7709  -1.7769   4.7576   3.7572   0.00    0.0
2014/03/17 02:03:00.000   47.067149132   15.493479517   542.1373   5   7   6.4898   4.4852  13.6821  -1.8430   4.7789   3.6264   0.00    0.0
2014/03/17 02:03:30.000   47.067151866   15.493480024   543.0566   5   7   6.4834   4.5013  13.5945  -1.9076   4.7999   3.4925   0.00    0.0
2014/03/17 02:04:00.000   47.067149546   15.493481457   543.3672   5   7   6.4776   4.5177  13.5083  -1.9709   4.8209   3.3553   0.00    0.0
2014/03/17 02:04:30.000   47.067146522   15.493482667   543.2667   5   7   6.4725   4.5344  13.4235  -2.0331   4.8418   3.2143   0.00    0.0
2014/03/17 02:05:00.000   47.067143785   15.493482259   543.1262   5   7   6.4679   4.5513  13.3400  -2.0941   4.8625   3.0690   0.00    0.0
2014/03/17 02:05:30.000   47.067142772   15.493483139   542.9885   5   7   6.4640   4.5685  13.2578  -2.1542   4.8832   2.9187   0.00    0.0
2014/03/17 02:06:00.000   47.067142420   15.493485774   543.4938   5   7   6.4606   4.5860  13.1770  -2.2133   4.9038   2.7624   0.00    0.0
2014/03/17 02:06:30.000   47.067141905   15.493485770   543.3204   5   7   6.4579   4.6039  13.0976  -2.2716   4.9244   2.5992   0.00    0.0
2014/03/17 02:07:00.000   47.067141494   15.493482178   542.4614   5   7   6.4558   4.6219  13.0194  -2.3291   4.9450   2.4276   0.00    0.0
2014/03/17 02:07:30.000   47.067140276   15.493480905   541.7331   5   7   6.4543   4.6403  12.9427  -2.3858   4.9656   2.2456   0.00    0.0
2014/03/17 02:08:00.000   47.067139101   15.493482724   541.4101   5   7   6.4533   4.6590  12.8672  -2.4419   4.9861   2.0504   0.00    0.0
2014/03/17 02:08:30.000   47.067137390   15.493482086   541.2898   5   7   6.4530   4.6780  12.7931  -2.4974   5.0067   1.8378   0.00    0.0
2014/03/17 02:09:00.000   47.067140938   15.493481105   541.5470   5   7   6.4532   4.6973  12.7203  -2.5522   5.0273   1.6007   0.00    0.0
2014/03/17 02:09:30.000   47.067143139   15.493478835   541.5153   5   7   6.4540   4.7168  12.6489  -2.6065   5.0480   1.3260   0.00    0.0
2014/03/17 02:10:00.000   47.067145114   15.493479597   541.4222   5   7   6.4554   4.7367  12.5787  -2.6603   5.0686   0.9825   0.00    0.0
2014/03/17 02:10:30.000   47.067144042   15.493481692   541.5773   5   7   6.4574   4.7569  12.5098  -2.7136   5.0894   0.4283   0.00    0.0
2014/03/17 02:11:00.000   47.067143504   15.493481048   541.5778   5   7   6.4599   4.7774  12.4422  -2.7665   5.1102  -0.7667   0.00    0.0
2014/03/17 02:11:30.000   47.067143887   15.493481277   541.6381   5   7   6.4629   4.7982  12.3758  -2.8189   5.1311  -1.1613   0.00    0.0
2014/03/17 02:12:00.000   47.067144677   15.493481450   541.9291   5   7   6.4665   4.8193  12.3107  -2.8709   5.1520  -1.4489   0.00    0.0
2014/03/17 02:12:30.000   47.067142540   15.493482006   542.2699   5   7   6.4706   4.8407  12.2469  -2.9225   5.1731  -1.6852   0.00    0.0
2014/03/17 02:13:00.000   47.067143253   15.493482969   542.5885   5   7   6.4753   4.8624  12.1842  -2.9737   5.1942  -1.8896   0.00    0.0
2014/03/17 02:13:30.000   47.067144351   15.493481909   542.7515   5   7   6.4804   4.8844  12.1228  -3.0246   5.2154  -2.0717   0.00    0.0
2014/03/17 02:14:00.000   47.067145910   15.493482728   542.9448   5   7   6.4861   4.9067  12.0625  -3.0752   5.2367  -2.2369   0.00    0.0
2014/03/17 02:14:30.000   47.067147075   15.493482547   543.1309   5   7   6.4923   4.9294  12.0035  -3.1254   5.2581  -2.3887   0.00    0.0
2014/03/17 02:15:00.000   47.067146063   15.493482593   543.2565   5   7   6.4989   4.9523  11.9455  -3.1754   5.2796  -2.5297   0.00    0.0
2014/03/17 02:15:30.000   47.067142757   15.493485718   543.4192   5   7   6.5060   4.9756  11.8887  -3.2251   5.3013  -2.6616   0.00    0.0
2014/03/17 02:16:00.000   47.067140812   15.493486535   543.2057   5   7   6.5136   4.9991  11.8331  -3.2745   5.3230  -2.7857   0.00    0.0
2014/03/17 02:16:30.000   47.067140221   15.493485719   542.7699   5   7   6.5217   5.0230  11.7785  -3.3236   5.3448  -2.9030   0.00    0.0
2014/03/17 02:17:00.000   47.067141603   15.493484821   542.6200   5   7   6.5302   5.0472  11.7250  -3.3725   5.3667  -3.0144   0.00    0.0
2014/03/17 02:17:30.000   47.067142478   15.493484577   542.5442   5   7   6.5392   5.0717  11.6726  -3.4212   5.3888  -3.1205   0.00    0.0
2014/03/17 02:18:00.000   47.067141450   15.493486106   542.8425   5   7   6.5485   5.0965  11.6212  -3.4696   5.4109  -3.2219   0.00    0.0
2014/03/17 02:18:30.000   47.067138450   15.493487208   542.8312   5   7   6.5584   5.1216  11.5709  -3.5178   5.4331  -3.3190   0.00    0.0
2014/03/17 02:19:00.000   47.067135834   15.493487390   543.0315   5   7   6.5686   5.1470  11.5215  -3.5658   5.4555  -3.4122   0.00    0.0
2014/03/17 02:19:30.000   47.067136595   15.493486069   543.4083   5   7   6.5792   5.1727  11.4732  -3.6136   5.4779  -3.5019   0.00    0.0
2014/03/17 02:20:00.000   47.067135190   15.493486918   543.8728   5   7   6.5902   5.1987  11.4258  -3.6612   5.5005  -3.5883   0.00    0.0
2014/03/17 02:20:30.000   47.067138928   15.493482889   542.9502   5   8   6.2373   3.4878   7.7201  -2.3109  -1.4211   2.1443   0.00    0.0
2014/03/17 02:21:00.000   47.067139271   15.493484760   542.6980   5   8   6.2267   3.4887   7.7068  -2.3152  -1.3656   2.1062   0.00    0.0
2014/03/17 02:21:30.000   47.067139712   15.493485526   542.2166   5   8   6.2160   3.4896   7.6934  -2.3196  -1.3080   2.0674   0.00    0.0
2014/03/17 02:22:00.000   47.067140240   15.493484789   542.0645   5   8   6.2052   3.4907   7.6801  -2.3238  -1.2478   2.0278   0.00    0.0
2014/03/17 02:22:30.000   47.067141639   15.493482403   541.8397   5   8   6.1942   3.4919   7.6668  -2.3281  -1.1848   1.9873   0.00    0.0
2014/03/17 02:23:00.000   47.067141266   15.493483896   541.1631   5   8   6.1830   3.4932   7.6535  -2.3323  -1.1184   1.9460   0.00    0.0
2014/03/17 02:23:30.000   47.067142047   15.493485789   540.7322   5   8   6.1718   3.4947   7.6402  -2.3365  -1.0480   1.9038   0.00    0.0
2014/03/17 02:24:00.000   47.067142618   15.493485112   540.5971   5   8   6.1604   3.4963   7.6269  -2.3407  -0.9727   1.8606   0.00    0.0
2014/03/17 02:24:30.000   47.067144528   15.493484140   540.7969   5   8   6.1489   3.4980   7.6137  -2.3449  -0.8915   1.8165   0.00    0.0
2014/03/17 02:25:00.000   47.067147124   15.493483711   541.0738   5   8   6.1373   3.4998   7.6005  -2.3490  -0.8023   1.7713   0.00    0.0
2014/03/17 02:25:30.000   47.067148215   15.493484075   541.2909   5   8   6.1256   3.5018   7.5874  -2.3531  -0.7022   1.7251   0.00    0.0
2014/03/17 02:26:00.000   47.067148532   15.493484688   541.3947   5   8   6.1138   3.5038   7.5743  -2.3573  -0.5857   1.6777   0.00    0.0
2014/03/17 02:26:30.000   47.067146854   15.493483890   541.6500   5   8   6.1019   3.5060   7.5612  -2.3614  -0.4399   1.6290   0.00    0.0
2014/03/17 02:27:00.000   47.067144832   15.493482744   542.0715   5   8   6.0899   3.5084   7.5482  -2.3655  -0.2110   1.5791   0.00    0.0
2014/03/17 02:27:30.000   47.067143469   15.493480200   542.2136   5   8   6.0779   3.5108   7.5352  -2.3696   0.3224   1.5277   0.00    0.0
2014/03/17 02:28:00.000   47.067143483   15.493478205   542.1308   5   8   6.0657   3.5134   7.5223  -2.3737   0.5018   1.4748   0.00    0.0
2014/03/17 02:28:30.000   47.067142023   15.493478941   542.1963   5   8   6.0535   3.5161   7.5095  -2.3778   0.6318   1.4201   0.00    0.0
2014/03/17 02:29:00.000   47.067143063   15.493479165   542.1420   5   8   6.0411   3.5189   7.4967  -2.3819   0.7388   1.3635   0.00    0.0
2014/03/17 02:29:30.000   47.067144974   15.493477205   541.7299   5   8   6.0287   3.5218   7.4839  -2.3860   0.8319   1.3048   0.00    0.0
2014/03/17 02:30:00.000   47.067146729   15.493477430   541.5748   5   8   6.0163   3.5249   7.4712  -2.3901   0.9152   1.2438   0.00    0.0
2014/03/17 02:30:30.000   47.067145271   15.493477790   541.7570   5   8   6.0037   3.5280   7.4586  -2.3942   0.9912   1.1799   0.00    0.0
2014/03/17 02:31:00.000   47.067143978   15.493478125   542.0714   5   8   5.9911   3.5313   7.4460  -2.3983   1.0615   1.1129   0.00    0.0
2014/03/17 02:31:30.000   47.067142999   15.493479460   542.2006   5   8   5.9785   3.5348   7.4335  -2.4024   1.1271   1.0420   0.00    0.0
2014/03/17 02:32:00.000   47.067141505   15.493480500   542.3316   5   8   5.9658   3.5383   7.4210  -2.4066   1.1889   0.9665   0.00    0.0
2014/03/17 02:32:30.000   47.067141109   15.493480457   542.1860   5   8   5.9530   3.5419   7.4086  -2.4107   1.2474   0.8853   0.00    0.0
2014/03/17 02:33:00.000   47.067140810   15.493481135   542.0689   5   8   5.9402   3.5457   7.3963  -2.4148   1.3030   0.7965   0.00    0.0
2014/03/17 02:33:30.000   47.067138483   15.493480557   541.7462   5   8   5.9274   3.5496   7.3840  -2.4190   1.3560   0.6974   0.00    0.0
2014/03/17 02:34:00.000   47.067137582   15.493481875   541.4606   5   7   5.9147   4.8310   9.9586  -2.3948  -4.4646   0.2437   0.00    0.0
2014/03/17 02:34:30.000   47.067135756   15.493483644   541.4593   5   7   5.9017   4.8231   9.9331  -2.4037  -4.4277  -0.2011   0.00    0.0
2014/03/17 02:35:00.000   47.067133898   15.493485770   541.7052   5   7   5.8887   4.8153   9.9075  -2.4124  -4.3905  -0.3747   0.00    0.0
2014/03/17 02:35:30.000   47.067134075   15.493486961   541.9413   5   8   5.3105   3.6887   7.8943   1.3753  -0.7891  -3.8967   0.00    0.0
2014/03/17 02:36:00.000   47.067133882   15.493485174   541.8589   5   8   5.2995   3.6884   7.9046   1.3418  -0.7342  -3.8858   0.00    0.0
2014/03/17 02:36:30.000   47.067133664   15.493483976   541.9834   5   8   5.2884   3.6883   7.9146   1.3076  -0.6750  -3.8747   0.00    0.0
2014/03/17 02:37:00.000   47.067133540   15.493482783   542.0542   5   8   5.2773   3.6884   7.9244   1.2727  -0.6101  -3.8635   0.00    0.0
2014/03/17 02:37:30.000   47.067134261   15.493484915   542.0540   5   8   5.2663   3.6885   7.9339   1.2372  -0.5377  -3.8521   0.00    0.0
2014/03/17 02:38:00.000   47.067136398   15.493485685   542.0033   5   8   5.2553   3.6887   7.9432   1.2008  -0.4541  -3.8406   0.00    0.0
2014/03/17 02:38:30.000   47.067137851   15.493484872   542.1240   5   8   5.2443   3.6891   7.9523   1.1636  -0.3514  -3.8289   0.00    0.0
2014/03/17 02:39:00.000   47.067141268   15.493480846   542.1872   5   8   5.2334   3.6895   7.9611   1.1254  -0.2023  -3.8171   0.00    0.0
2014/03/17 02:39:30.000   47.067143741   15.493480480   542.1816   5   8   5.2224   3.6901   7.9697   1.0862   0.2035  -3.8052   0.00    0.0
2014/03/17 02:40:00.000   47.067145240   15.493482269   542.0235   5   8   5.2116   3.6907   7.9780   1.0458   0.3514  -3.7931   0.00    0.0
2014/03/17 02:40:30.000   47.067143481   15.493480586   541.7505   5   8   5.2007   3.6915   7.9860   1.0040   0.4532  -3.7808   0.00    0.0
2014/03/17 02:41:00.000   47.067141574   15.493479471   541.8689   5   8   5.1899   3.6924   7.9937   0.9608   0.5358  -3.7684   0.00    0.0
2014/03/17 02:41:30.000   47.067142965   15.493478925   541.8320   5   8   5.1791   3.6934   8.0012   0.9159   0.6070  -3.7559   0.00    0.0
2014/03/17 02:42:00.000   47.067140179   15.493480121   542.1950   5   8   5.1683   3.6945   8.0084   0.8690   0.6706  -3.7433   0.00    0.0
2014/03/17 02:42:30.000   47.067136869   15.493482433   542.4128   5   8   5.1575   3.6956   8.0154   0.8198   0.7284  -3.7305   0.00    0.0
2014/03/17 02:43:00.000   47.067136628   15.493482492   542.2482   5   8   5.1468   3.6969   8.0220   0.7678   0.7818  -3.7175   0.00    0.0
2014/03/17 02:43:30.000   47.067136209   15.493479229   541.8322   5   8   5.1362   3.6983   8.0284   0.7124   0.8316  -3.7045   0.00    0.0
2014/03/17 02:44:00.000   47.067136381   15.493477462   541.2712   5   8   5.1256   3.6998   8.0344   0.6528   0.8785  -3.6913   0.00    0.0
2014/03/17 02:44:30.000   47.067137008   15.493474052   541.3198   5   8   5.1150   3.7014   8.0402   0.5877   0.9228  -3.6779   0.00    0.0
2014/03/17 02:45:00.000   47.067138245   15.493477504   541.1347   5   8   5.1044   3.7032   8.0456   0.5150   0.9649  -3.6645   0.00    0.0
2014/03/17 02:45:30.000   47.067141446   15.493481392   541.2959   5   8   5.0939   3.7050   8.0508   0.4307   1.0051  -3.6509   0.00    0.0
2014/03/17 02:46:00.000   47.067142995   15.493483208   541.6368   5   8   5.0835   3.7069   8.0556   0.3262   1.0436  -3.6372   0.00    0.0
2014/03/17 02:46:30.000   47.067143262   15.493485945   541.6799   5   8   5.0731   3.7089   8.0602   0.1670   1.0806  -3.6234   0.00    0.0
2014/03/17 02:47:00.000   47.067142379   15.493485645   541.3372   5   8   5.0627   3.7110   8.0644  -0.2238   1.1162  -3.6095   0.00    0.0
2014/03/17 02:47:30.000   47.067144832   15.493483037   540.9528   5   8   5.0524   3.7132   8.0683  -0.3572   1.1506  -3.5954   0.00    0.0
2014/03/17 02:48:00.000   47.067144853   15.493483002   540.6623   5   8   5.0421   3.7155   8.0719  -0.4522   1.1838  -3.5813   0.00    0.0
2014/03/17 02:48:30.000   47.067146068   15.493482419   540.7668   5   8   5.0319   3.7179   8.0752  -0.5300   1.2160  -3.5670   0.00    0.0
2014/03/17 02:49:00.000   47.067145949   15.493481288   541.2231   5   8   5.0217   3.7204   8.0781  -0.5973   1.2472  -3.5527   0.00    0.0
2014/03/17 02:49:30.000   47.067145572   15.493483192   541.7943   5   9   4.7055   3.5931   7.6927  -1.4537  -0.8829  -4.0970   0.00    0.0
2014/03/17 02:50:00.000   47.067143991   15.493482672   542.1101   5   9   4.6969   3.5952   7.6979  -1.4787  -0.8369  -4.0808   0.00    0.0
2014/03/17 02:50:30.000   47.067142910   15.493482390   542.0492   5   9   4.6884   3.5975   7.7029  -1.5030  -0.7883  -4.0645   0.00    0.0
2014/03/17 02:51:00.000   47.067141331   15.493482240   541.9746   5   9   4.6799   3.5999   7.7076  -1.5268  -0.7365  -4.0480   0.00    0.0
2014/03/17 02:51:30.000   47.067139881   15.493484587   541.9155   5   9   4.6716   3.6023   7.7121  -1.5501  -0.6808  -4.0313   0.00    0.0
2014/03/17 02:52:00.000   47.067140161   15.493486181   541.4923   5   9   4.6633   3.6048   7.7163  -1.5729  -0.6201  -4.0145   0.00    0.0
2014/03/17 02:52:30.000   47.067139631   15.493486887   541.3073   5   9   4.6550   3.6074   7.7204  -1.5952  -0.5528  -3.9975   0.00    0.0
2014/03/17 02:53:00.000   47.067137692   15.493488073   541.5933   5   9   4.6469   3.6101   7.7241  -1.6171  -0.4762  -3.9803   0.00    0.0
2014/03/17 02:53:30.000   47.067137318   15.493490253   541.8062   5   9   4.6388   3.6129   7.7277  -1.6385  -0.3847  -3.9630   0.00    0.0
2014/03/17 02:54:00.000   47.067136555   15.493491922   542.1355   5   9   4.6309   3.6157   7.7310  -1.6595  -0.2631  -3.9455   0.00    0.0
2014/03/17 02:54:30.000   47.067137056   15.493489345   542.1567   5   9   4.6230   3.6187   7.7340  -1.6801   0.0974  -3.9278   0.00    0.0
2014/03/17 02:55:00.000   47.067138482   15.493486481   542.3373   5   9   4.6152   3.6217   7.7368  -1.7004   0.2969  -3.9100   0.00    0.0
2014/03/17 02:55:30.000   47.067141625   15.493483647   542.0837   5   9   4.6074   3.6248   7.7394  -1.7203   0.4084  -3.8921   0.00    0.0
2014/03/17 02:56:00.000   47.067143520   15.493482188   541.9053   5   9   4.5998   3.6280   7.7416  -1.7398   0.4953  -3.8740   0.00    0.0
2014/03/17 02:56:30.000   47.067144551   15.493479883   541.5888   5   9   4.5923   3.6313   7.7437  -1.7590   0.5691  -3.8558   0.00    0.0
2014/03/17 02:57:00.000   47.067145058   15.493477587   541.6378   5   9   4.5848   3.6346   7.7455  -1.7779   0.6344  -3.8374   0.00    0.0
2014/03/17 02:57:30.000   47.067146108   15.493474740   541.5650   5   9   4.5775   3.6380   7.7470  -1.7964   0.6935  -3.8189   0.00    0.0
2014/03/17 02:58:00.000   47.067146239   15.493475854   541.5888   5   9   4.5702   3.6416   7.7482  -1.8147   0.7479  -3.8002   0.00    0.0
2014/03/17 02:58:30.000   47.067143553   15.493481151   541.8816   5   9   4.5631   3.6452   7.7492  -1.8326   0.7985  -3.7815   0.00    0.0
2014/03/17 02:59:00.000   47.067141035   15.493485590   542.0670   5   9   4.5560   3.6488   7.7500  -1.8503   0.8462  -3.7626   0.00    0.0
2014/03/17 02:59:30.000   47.067140366   15.493486182   541.7784   5   9   4.5491   3.6526   7.7505  -1.8677   0.8913  -3.7436   0.00    0.0
2014/03/17 03:00:00.000   47.067140807   15.493484938   541.8093   5   9   4.5422   3.6564   7.7507  -1.8848   0.9341  -3.7245   0.00    0.0
2014/03/17 03:00:30.000   47.067140959   15.493484096   541.8060   5   9   4.5355   3.6604   7.7506  -1.9017   0.9751  -3.7053   0.00    0.0
2014/03/17 03:01:00.000   47.067140412   15.493483214   542.0681   5   9   4.5289   3.6644   7.7503  -1.9184   1.0144  -3.6860   0.00    0.0
2014/03/17 03:01:30.000   47.067139940   15.493482154   542.0575   5   9   4.5223   3.6684   7.7497  -1.9348   1.0523  -3.6666   0.00    0.0
2014/03/17 03:02:00.000   47.067139737   15.493478743   541.8504   5   9   4.5159   3.6726   7.7488  -1.9509   1.0888  -3.6471   0.00    0.0
2014/03/17 03:02:30.000   47.067140315   15.493475037   541.6498   5   9   4.5096   3.6768   7.7477  -1.9669   1.1241  -3.6275   0.00    0.0
2014/03/17 03:03:00.000   47.067141989   15.493475494   541.5026   5   9   4.5034   3.6812   7.7463  -1.9826   1.1583  -3.6078   0.00    0.0
2014/03/17 03:03:30.000   47.067142642   15.493478390   541.0710   5   9   4.4973   3.6856   7.7446  -1.9981   1.1916  -3.5880   0.00    0.0
2014/03/17 03:04:00.000   47.067143197   15.493479824   540.7034   5   9   4.4914   3.6900   7.7427  -2.0135   1.2239  -3.5682   0.00    0.0
2014/03/17 03:04:30.000   47.067145135   15.493478796   540.6977   5   9   4.4855   3.6946   7.7405  -2.0286   1.2554  -3.5483   0.00    0.0
2014/03/17 03:05:00.000   47.067146161   15.493479218   540.9966   5   9   4.4798   3.6992   7.7380  -2.0435   1.2861  -3.5284   0.00    0.0
2014/03/17 03:05:30.000   47.067145526   15.493480967   541.2002   5   9   4.4741   3.7040   7.7353  -2.0583   1.3161  -3.5084   0.00    0.0
2014/03/17 03:06:00.000   47.067145003   15.493480803   541.5225   5   9   4.4686   3.7088   7.7323  -2.0728   1.3454  -3.4883   0.00    0.0
2014/03/17 03:06:30.000   47.067145033   15.493482258   541.3350   5   9   4.4632   3.7136   7.7290  -2.0872   1.3741  -3.4682   0.00    0.0
2014/03/17 03:07:00.000   47.067144880   15.493481430   541.2409   5   9   4.4579   3.7186   7.7255  -2.1014   1.4022  -3.4481   0.00    0.0
2014/03/17 03:07:30.000   47.067145868   15.493481094   541.2528   5   9   4.4528   3.7236   7.7217  -2.1155   1.4298  -3.4279   0.00    0.0
2014/03/17 03:08:00.000   47.067145967   15.493482544   541.2517   5   9   4.4477   3.7288   7.7176  -2.1294   1.4568  -3.4078   0.00    0.0
2014/03/17 03:08:30.000   47.067147204   15.493478840   540.8508   5  10   4.0996   3.1902   6.9218  -1.1273  -2.0985  -2.3767   0.00    0.0
2014/03/17 03:09:00.000   47.067150080   15.493477261   541.0926   5   9   4.7835   3.1893   7.4316  -1.1520  -2.0870   1.0680   0.00    0.0
2014/03/17 03:09:30.000   47.067148081   15.493477723   541.2155   5   9   4.7829   3.1885   7.4629  -1.1717  -2.0729   1.2127   0.00    0.0
2014/03/17 03:10:00.000   47.067146648   15.493477011   541.3702   5   9   4.7825   3.1877   7.4950  -1.1906  -2.0584   1.3429   0.00    0.0
2014/03/17 03:10:30.000   47.067145196   15.493477178   541.4659   5   9   4.7825   3.1869   7.5277  -1.2088  -2.0437   1.4624   0.00    0.0
2014/03/17 03:11:00.000   47.067144381   15.493479826   541.5877   5   9   4.7828   3.1863   7.5611  -1.2263  -2.0285   1.5738   0.00    0.0
2014/03/17 03:11:30.000   47.067142062   15.493481311   541.6021   5   9   4.7835   3.1856   7.5953  -1.2431  -2.0129   1.6787   0.00    0.0
2014/03/17 03:12:00.000   47.067138479   15.493484190   541.5419   5   9   4.7844   3.1851   7.6301  -1.2592  -1.9970   1.7783   0.00    0.0
2014/03/17 03:12:30.000   47.067135814   15.493486159   541.3333   5   9   4.7857   3.1846   7.6656  -1.2747  -1.9805   1.8734   0.00    0.0
2014/03/17 03:13:00.000   47.067135828   15.493483866   541.1317   5   9   4.7873   3.1841   7.7018  -1.2896  -1.9636   1.9646   0.00    0.0
2014/03/17 03:13:30.000   47.067137869   15.493482124   541.1910   5   9   4.7892   3.1837   7.7388  -1.3038  -1.9462   2.0526   0.00    0.0
2014/03/17 03:14:00.000   47.067138276   15.493479896   541.1976   5   9   4.7914   3.1834   7.7764  -1.3175  -1.9282   2.1377   0.00    0.0
2014/03/17 03:14:30.000   47.067140532   15.493477769   540.9192   5   9   4.7940   3.1831   7.8147  -1.3305  -1.9096   2.2203   0.00    0.0
2014/03/17 03:15:00.000   47.067139716   15.493476266   540.5184   5   9   4.7968   3.1828   7.8537  -1.3430  -1.8904   2.3006   0.00    0.0
2014/03/17 03:15:30.000   47.067137690   15.493479445   540.4232   5   9   4.8000   3.1827   7.8934  -1.3549  -1.8705   2.3789   0.00    0.0
2014/03/17 03:16:00.000   47.067138773   15.493479710   540.3826   5   9   4.8035   3.1825   7.9339  -1.3662  -1.8499   2.4555   0.00    0.0
2014/03/17 03:16:30.000   47.067141140   15.493477188   540.7312   5   9   4.8073   3.1825   7.9750  -1.3770  -1.8285   2.5303   0.00    0.0
2014/03/17 03:17:00.000   47.067143982   15.493474922   540.8487   5   9   4.8113   3.1825   8.0168  -1.3872  -1.8063   2.6037   0.00    0.0
2014/03/17 03:17:30.000   47.067146153   15.493474297   541.1986   5   9   4.8157   3.1825   8.0592  -1.3968  -1.7831   2.6758   0.00    0.0
2014/03/17 03:18:00.000   47.067147885   15.493474193   541.1944   5   9   4.8204   3.1827   8.1024  -1.4059  -1.7590   2.7465   0.00    0.0
2014/03/17 03:18:30.000   47.067147416   15.493474479   541.2236   5   9   4.8254   3.1829   8.1462  -1.4145  -1.7339   2.8162   0.00    0.0
2014/03/17 03:19:00.000   47.067145216   15.493475441   541.0974   5   9   4.8306   3.1831   8.1908  -1.4225  -1.7077   2.8847   0.00    0.0
2014/03/17 03:19:30.000   47.067143996   15.493476596   540.9902   5   9   4.8362   3.1834   8.2359  -1.4299  -1.6802   2.9523   0.00    0.0
2014/03/17 03:20:00.000   47.067143398   15.493478512   541.3988   5   9   4.8420   3.1838   8.2817  -1.4368  -1.6515   3.0189   0.00    0.0
2014/03/17 03:20:30.000   47.067143483   15.493480019   541.0249   5   9   4.8481   3.1843   8.3282  -1.4431  -1.6214   3.0847   0.00    0.0
2014/03/17 03:21:00.000   47.067141967   15.493479898   540.8635   5   9   4.8544   3.1848   8.3753  -1.4488  -1.5897   3.1496   0.00    0.0
2014/03/17 03:21:30.000   47.067140240   15.493480431   540.9226   5   9   4.8611   3.1855   8.4230  -1.4540  -1.5565   3.2137   0.00    0.0
2014/03/17 03:22:00.000   47.067140396   15.493479290   540.7353   5   9   4.8679   3.1861   8.4713  -1.4586  -1.5214   3.2772   0.00    0.0
2014/03/17 03:22:30.000   47.067139970   15.493479497   540.6264   5   9   4.8750   3.1869   8.5203  -1.4626  -1.4843   3.3399   0.00    0.0
2014/03/17 03:23:00.000   47.067137796   15.493481308   540.0897   5   9   4.8824   3.1878   8.5698  -1.4660  -1.4451   3.4019   0.00    0.0
2014/03/17 03:23:30.000   47.067137888   15.493481110   539.8765   5   9   4.8900   3.1887   8.6199  -1.4688  -1.4035   3.4633   0.00    0.0
2014/03/17 03:24:00.000   47.067137913   15.493479054   539.8001   5   9   4.8978   3.1898   8.6705  -1.4711  -1.3593   3.5240   0.00    0.0
2014/03/17 03:24:30.000   47.067137637   15.493480439   540.0741   5   9   4.9058   3.1909   8.7216  -1.4727  -1.3120   3.5842   0.00    0.0
2014/03/17 03:25:00.000   47.067137350   15.493479570   540.4137   5   9   4.9141   3.1921   8.7733  -1.4736  -1.2614   3.6437   0.00    0.0
2014/03/17 03:25:30.000   47.067138521   15.493476867   540.8330   5   9   4.9225   3.1935   8.8255  -1.4740  -1.2070   3.7026   0.00    0.0
2014/03/17 03:26:00.000   47.067140059   15.493475974   541.3186   5   9   4.9311   3.1949   8.8781  -1.4736  -1.1481   3.7610   0.00    0.0
2014/03/17 03:26:30.000   47.067142135   15.493476086   541.1417   5   9   4.9399   3.1965   8.9312  -1.4727  -1.0839   3.8188   0.00    0.0
2014/03/17 03:27:00.000   47.067140548   15.493476688   540.9266   5   9   4.9488   3.1981   8.9846  -1.4710  -1.0135   3.8760   0.00    0.0
2014/03/17 03:27:30.000   47.067140664   15.493477253   540.8692   5   9   4.9579   3.1999   9.0385  -1.4687  -0.9352   3.9326   0.00    0.0
