% program   : RTKPOST ver.2.4.2
% inp file  : C:\Users\Jacque Fresco\Dropbox\PSN_2017\Projektni zadatak_PSN_2017\Dino Vukeliæ\Prikupljanje podataka\74 Dan\graz0740.14d
% inp file  : C:\Users\Jacque Fresco\Dropbox\PSN_2017\Projektni zadatak_PSN_2017\Dino Vukeliæ\Prikupljanje podataka\74 Dan\brdc0740.14n
% obs start : 2014/03/15 00:00:00.0 GPST (week1783 518400.0s)
% obs end   : 2014/03/15 23:59:30.0 GPST (week1783 604770.0s)
% pos mode  : single
% elev mask : 15.0 deg
% ionos opt : off
% tropo opt : saastamoinen
% ephemeris : broadcast
%
% (lat/lon/height=WGS84/ellipsoidal,Q=1:fix,2:float,3:sbas,4:dgps,5:single,6:ppp,ns=# of satellites)
%  GPST                  latitude(deg) longitude(deg)  height(m)   Q  ns   sdn(m)   sde(m)   sdu(m)  sdne(m)  sdeu(m)  sdun(m) age(s)  ratio
2014/03/15 00:00:00.000   47.067128656   15.493482441   542.5553   5   5   9.0503   4.9764  12.9769   5.3369  -3.4967  -5.1932   0.00    0.0
2014/03/15 00:00:30.000   47.067128832   15.493482356   542.4651   5   5   9.0955   4.9794  12.9879   5.3553  -3.4279  -5.1676   0.00    0.0
2014/03/15 00:01:00.000   47.067128961   15.493482381   542.5632   5   5   9.1411   4.9827  12.9986   5.3740  -3.3570  -5.1411   0.00    0.0
2014/03/15 00:01:30.000   47.067128825   15.493482221   542.5800   5   5   9.1873   4.9865  13.0088   5.3932  -3.2839  -5.1138   0.00    0.0
2014/03/15 00:02:00.000   47.067128654   15.493481804   542.5977   5   5   9.2340   4.9906  13.0187   5.4127  -3.2084  -5.0856   0.00    0.0
2014/03/15 00:02:30.000   47.067128838   15.493481867   542.7674   5   5   9.2812   4.9951  13.0281   5.4326  -3.1305  -5.0566   0.00    0.0
2014/03/15 00:03:00.000   47.067129115   15.493482255   542.8549   5   5   9.3289   5.0000  13.0372   5.4529  -3.0499  -5.0266   0.00    0.0
2014/03/15 00:03:30.000   47.067130602   15.493483019   542.6837   5   5   9.3771   5.0053  13.0459   5.4736  -2.9663  -4.9958   0.00    0.0
2014/03/15 00:04:00.000   47.067131538   15.493483470   542.7502   5   5   9.4259   5.0110  13.0542   5.4947  -2.8797  -4.9641   0.00    0.0
2014/03/15 00:04:30.000   47.067131728   15.493484193   542.6919   5   5   9.4751   5.0171  13.0621   5.5162  -2.7896  -4.9314   0.00    0.0
2014/03/15 00:05:00.000   47.067131339   15.493484081   542.6188   5   5   9.5248   5.0236  13.0696   5.5380  -2.6958  -4.8978   0.00    0.0
2014/03/15 00:05:30.000   47.067131748   15.493484452   542.7224   5   5   9.5751   5.0305  13.0768   5.5603  -2.5979  -4.8633   0.00    0.0
2014/03/15 00:06:00.000   47.067131847   15.493484828   542.7983   5   5   9.6259   5.0379  13.0836   5.5830  -2.4954  -4.8278   0.00    0.0
2014/03/15 00:06:30.000   47.067131224   15.493484656   542.7937   5   5   9.6771   5.0456  13.0900   5.6060  -2.3878  -4.7914   0.00    0.0
2014/03/15 00:07:00.000   47.067130775   15.493484632   542.8925   5   5   9.7289   5.0537  13.0961   5.6295  -2.2743  -4.7540   0.00    0.0
2014/03/15 00:07:30.000   47.067130585   15.493484662   542.8992   5   5   9.7812   5.0623  13.1018   5.6533  -2.1541  -4.7155   0.00    0.0
2014/03/15 00:08:00.000   47.067130152   15.493484405   542.8264   5   5   9.8339   5.0712  13.1071   5.6775  -2.0259  -4.6761   0.00    0.0
2014/03/15 00:08:30.000   47.067130099   15.493484006   542.8120   5   5   9.8872   5.0806  13.1121   5.7021  -1.8882  -4.6357   0.00    0.0
2014/03/15 00:09:00.000   47.067130008   15.493483594   542.7896   5   5   9.9409   5.0903  13.1168   5.7270  -1.7388  -4.5942   0.00    0.0
2014/03/15 00:09:30.000   47.067130097   15.493483221   542.6850   5   5   9.9950   5.1005  13.1211   5.7523  -1.5743  -4.5517   0.00    0.0
2014/03/15 00:10:00.000   47.067147073   15.493491460   543.7627   5   6   6.7962   4.4380  12.4704   3.8231  -3.5084  -7.1153   0.00    0.0
2014/03/15 00:10:30.000   47.067146586   15.493491607   543.7980   5   6   6.7927   4.4313  12.4802   3.8038  -3.4422  -7.0999   0.00    0.0
2014/03/15 00:11:00.000   47.067146466   15.493491363   543.9242   5   6   6.7890   4.4249  12.4896   3.7845  -3.3741  -7.0840   0.00    0.0
2014/03/15 00:11:30.000   47.067146420   15.493490851   543.8971   5   6   6.7853   4.4188  12.4986   3.7651  -3.3040  -7.0677   0.00    0.0
2014/03/15 00:12:00.000   47.067147131   15.493491011   543.8343   5   6   6.7814   4.4130  12.5073   3.7456  -3.2318  -7.0508   0.00    0.0
2014/03/15 00:12:30.000   47.067147028   15.493490096   543.7454   5   6   6.7775   4.4075  12.5155   3.7261  -3.1574  -7.0334   0.00    0.0
2014/03/15 00:13:00.000   47.067147233   15.493489771   543.7427   5   6   6.7735   4.4023  12.5234   3.7065  -3.0806  -7.0155   0.00    0.0
2014/03/15 00:13:30.000   47.067146941   15.493489610   543.8242   5   6   6.7694   4.3974  12.5309   3.6868  -3.0012  -6.9972   0.00    0.0
2014/03/15 00:14:00.000   47.067146677   15.493489441   543.8388   5   6   6.7652   4.3929  12.5380   3.6671  -2.9191  -6.9783   0.00    0.0
2014/03/15 00:14:30.000   47.067146803   15.493489648   543.9032   5   6   6.7609   4.3886  12.5448   3.6474  -2.8340  -6.9590   0.00    0.0
2014/03/15 00:15:00.000   47.067146733   15.493489577   544.0744   5   6   6.7567   4.3847  12.5513   3.6277  -2.7458  -6.9392   0.00    0.0
2014/03/15 00:15:30.000   47.067147022   15.493489743   544.0363   5   6   6.7523   4.3811  12.5574   3.6079  -2.6540  -6.9190   0.00    0.0
2014/03/15 00:16:00.000   47.067147134   15.493490211   543.9845   5   6   6.7479   4.3778  12.5631   3.5882  -2.5583  -6.8983   0.00    0.0
2014/03/15 00:16:30.000   47.067147651   15.493490293   543.8968   5   6   6.7435   4.3749  12.5686   3.5684  -2.4583  -6.8772   0.00    0.0
2014/03/15 00:17:00.000   47.067147338   15.493490257   543.8876   5   6   6.7390   4.3724  12.5737   3.5487  -2.3536  -6.8556   0.00    0.0
2014/03/15 00:17:30.000   47.067147467   15.493490315   543.8369   5   6   6.7345   4.3702  12.5785   3.5290  -2.2433  -6.8335   0.00    0.0
2014/03/15 00:18:00.000   47.067147589   15.493490306   543.8642   5   6   6.7300   4.3684  12.5830   3.5093  -2.1267  -6.8111   0.00    0.0
2014/03/15 00:18:30.000   47.067147327   15.493490462   544.0133   5   6   6.7255   4.3669  12.5873   3.4896  -2.0027  -6.7882   0.00    0.0
2014/03/15 00:19:00.000   47.067146899   15.493490417   544.0821   5   7   6.1160   4.1791   9.7715   3.9446  -3.6778  -4.8618   0.00    0.0
2014/03/15 00:19:30.000   47.067147180   15.493490412   544.0706   5   7   6.1147   4.1709   9.7711   3.9348  -3.6348  -4.8335   0.00    0.0
2014/03/15 00:20:00.000   47.067147629   15.493490123   543.9979   5   7   6.1134   4.1628   9.7707   3.9250  -3.5911  -4.8049   0.00    0.0
2014/03/15 00:20:30.000   47.067147673   15.493489890   543.9255   5   7   6.1122   4.1550   9.7703   3.9154  -3.5467  -4.7760   0.00    0.0
2014/03/15 00:21:00.000   47.067147233   15.493489417   543.9485   5   7   6.1111   4.1474   9.7699   3.9059  -3.5016  -4.7467   0.00    0.0
2014/03/15 00:21:30.000   47.067147294   15.493489139   543.9876   5   7   6.1100   4.1399   9.7695   3.8964  -3.4558  -4.7171   0.00    0.0
2014/03/15 00:22:00.000   47.067147352   15.493489047   543.9608   5   7   6.1091   4.1327   9.7692   3.8871  -3.4091  -4.6872   0.00    0.0
2014/03/15 00:22:30.000   47.067147307   15.493488690   543.8606   5   7   6.1082   4.1256   9.7689   3.8779  -3.3617  -4.6570   0.00    0.0
2014/03/15 00:23:00.000   47.067147579   15.493488157   543.9505   5   7   6.1074   4.1188   9.7686   3.8688  -3.3134  -4.6264   0.00    0.0
2014/03/15 00:23:30.000   47.067147788   15.493488139   544.0571   5   7   6.1067   4.1122   9.7683   3.8598  -3.2642  -4.5955   0.00    0.0
2014/03/15 00:24:00.000   47.067147743   15.493488224   544.0390   5   7   6.1061   4.1059   9.7681   3.8510  -3.2141  -4.5643   0.00    0.0
2014/03/15 00:24:30.000   47.067148418   15.493488624   543.9080   5   7   6.1056   4.0997   9.7679   3.8422  -3.1631  -4.5328   0.00    0.0
2014/03/15 00:25:00.000   47.067148873   15.493488779   543.9041   5   7   6.1052   4.0938   9.7678   3.8336  -3.1111  -4.5010   0.00    0.0
2014/03/15 00:25:30.000   47.067149412   15.493489293   543.8909   5   7   6.1048   4.0881   9.7677   3.8252  -3.0581  -4.4688   0.00    0.0
2014/03/15 00:26:00.000   47.067149678   15.493489744   543.8853   5   7   6.1046   4.0826   9.7677   3.8169  -3.0040  -4.4363   0.00    0.0
2014/03/15 00:26:30.000   47.067150270   15.493490000   543.8391   5   7   6.1045   4.0773   9.7677   3.8087  -2.9487  -4.4035   0.00    0.0
2014/03/15 00:27:00.000   47.067150734   15.493489915   543.7407   5   7   6.1045   4.0723   9.7678   3.8006  -2.8923  -4.3704   0.00    0.0
2014/03/15 00:27:30.000   47.067151069   15.493490490   543.6103   5   7   6.1046   4.0676   9.7680   3.7927  -2.8346  -4.3370   0.00    0.0
2014/03/15 00:28:00.000   47.067151269   15.493490502   543.5245   5   7   6.1048   4.0631   9.7682   3.7850  -2.7756  -4.3033   0.00    0.0
2014/03/15 00:28:30.000   47.067151821   15.493490768   543.4599   5   7   6.1050   4.0588   9.7685   3.7773  -2.7151  -4.2692   0.00    0.0
2014/03/15 00:29:00.000   47.067152725   15.493491690   543.3382   5   7   6.1054   4.0548   9.7689   3.7699  -2.6532  -4.2349   0.00    0.0
2014/03/15 00:29:30.000   47.067152314   15.493491240   543.2993   5   7   6.1059   4.0510   9.7693   3.7626  -2.5896  -4.2002   0.00    0.0
2014/03/15 00:30:00.000   47.067152045   15.493491138   543.3341   5   7   6.1065   4.0474   9.7698   3.7554  -2.5243  -4.1653   0.00    0.0
2014/03/15 00:30:30.000   47.067151427   15.493490427   543.4445   5   7   6.1072   4.0442   9.7704   3.7484  -2.4572  -4.1300   0.00    0.0
2014/03/15 00:31:00.000   47.067151163   15.493489990   543.5424   5   7   6.1080   4.0411   9.7710   3.7415  -2.3880  -4.0945   0.00    0.0
2014/03/15 00:31:30.000   47.067150167   15.493489173   543.6265   5   7   6.1090   4.0384   9.7718   3.7348  -2.3167  -4.0586   0.00    0.0
2014/03/15 00:32:00.000   47.067149745   15.493488456   543.5310   5   7   6.1100   4.0358   9.7726   3.7282  -2.2430  -4.0224   0.00    0.0
2014/03/15 00:32:30.000   47.067149858   15.493487931   543.4951   5   7   6.1111   4.0336   9.7735   3.7218  -2.1667  -3.9860   0.00    0.0
2014/03/15 00:33:00.000   47.067149790   15.493487895   543.5337   5   7   6.1123   4.0316   9.7745   3.7155  -2.0874  -3.9492   0.00    0.0
2014/03/15 00:33:30.000   47.067149165   15.493487446   543.5952   5   7   6.1137   4.0298   9.7756   3.7094  -2.0050  -3.9122   0.00    0.0
2014/03/15 00:34:00.000   47.067149156   15.493487534   543.6218   5   7   6.1151   4.0284   9.7768   3.7034  -1.9189  -3.8749   0.00    0.0
2014/03/15 00:34:30.000   47.067150027   15.493487616   543.6770   5   7   6.1167   4.0271   9.7780   3.6976  -1.8286  -3.8373   0.00    0.0
2014/03/15 00:35:00.000   47.067150443   15.493487691   543.6497   5   7   6.1183   4.0262   9.7793   3.6919  -1.7336  -3.7994   0.00    0.0
2014/03/15 00:35:30.000   47.067150709   15.493488161   543.6568   5   7   6.1200   4.0255   9.7807   3.6864  -1.6329  -3.7612   0.00    0.0
2014/03/15 00:36:00.000   47.067151289   15.493488480   543.6217   5   7   6.1219   4.0250   9.7822   3.6810  -1.5255  -3.7227   0.00    0.0
2014/03/15 00:36:30.000   47.067151531   15.493488858   543.6146   5   7   6.1238   4.0249   9.7838   3.6758  -1.4099  -3.6840   0.00    0.0
2014/03/15 00:37:00.000   47.067151659   15.493489518   543.5895   5   7   6.1258   4.0249   9.7855   3.6707  -1.2838  -3.6450   0.00    0.0
2014/03/15 00:37:30.000   47.067152249   15.493490023   543.5177   5   7   6.1279   4.0253   9.7872   3.6658  -1.1439  -3.6058   0.00    0.0
2014/03/15 00:38:00.000   47.067151557   15.493489710   543.4208   5   7   6.1302   4.0259   9.7891   3.6610  -0.9842  -3.5662   0.00    0.0
2014/03/15 00:38:30.000   47.067151611   15.493489909   543.4737   5   7   6.1325   4.0267   9.7910   3.6563  -0.7929  -3.5265   0.00    0.0
2014/03/15 00:39:00.000   47.067152110   15.493490230   543.5079   5   7   6.1348   4.0279   9.7929   3.6517  -0.5372  -3.4864   0.00    0.0
2014/03/15 00:39:30.000   47.067151992   15.493490330   543.5297   5   7   6.1373   4.0292   9.7950   3.6473   0.2268  -3.4462   0.00    0.0
2014/03/15 00:40:00.000   47.067152042   15.493490455   543.5125   5   7   6.1399   4.0309   9.7971   3.6430   0.6256  -3.4057   0.00    0.0
2014/03/15 00:40:30.000   47.067151841   15.493490537   543.5908   5   7   6.1425   4.0327   9.7993   3.6388   0.8552  -3.3649   0.00    0.0
2014/03/15 00:41:00.000   47.067151898   15.493490200   543.6231   5   7   6.1452   4.0349   9.8016   3.6347   1.0350  -3.3240   0.00    0.0
2014/03/15 00:41:30.000   47.067154871   15.493494946   542.7619   5   6   8.0198   7.0992  17.1227   6.5768  -8.9758  -9.1142   0.00    0.0
2014/03/15 00:42:00.000   47.067155397   15.493495498   542.4936   5   6   7.9578   7.0333  17.1296   6.4980  -8.8944  -9.0234   0.00    0.0
2014/03/15 00:42:30.000   47.067155739   15.493495955   542.4337   5   6   7.8972   6.9686  17.1393   6.4203  -8.8140  -8.9333   0.00    0.0
2014/03/15 00:43:00.000   47.067155739   15.493496134   542.5214   5   6   7.8379   6.9051  17.1517   6.3437  -8.7346  -8.8438   0.00    0.0
2014/03/15 00:43:30.000   47.067155696   15.493495548   542.5938   5   6   7.7800   6.8427  17.1668   6.2682  -8.6560  -8.7549   0.00    0.0
2014/03/15 00:44:00.000   47.067155767   15.493495679   542.7359   5   6   7.7234   6.7816  17.1846   6.1937  -8.5784  -8.6665   0.00    0.0
2014/03/15 00:44:30.000   47.067155506   15.493495833   542.7390   5   6   7.6681   6.7216  17.2052   6.1201  -8.5015  -8.5787   0.00    0.0
2014/03/15 00:45:00.000   47.067155139   15.493495241   542.8449   5   6   7.6140   6.6626  17.2286   6.0476  -8.4255  -8.4913   0.00    0.0
2014/03/15 00:45:30.000   47.067155181   15.493494926   542.8924   5   6   7.5612   6.6048  17.2547   5.9760  -8.3502  -8.4043   0.00    0.0
2014/03/15 00:46:00.000   47.067154824   15.493494549   542.9100   5   6   7.5097   6.5481  17.2837   5.9054  -8.2756  -8.3176   0.00    0.0
2014/03/15 00:46:30.000   47.067154813   15.493494657   542.9440   5   6   7.4594   6.4924  17.3155   5.8357  -8.2017  -8.2313   0.00    0.0
2014/03/15 00:47:00.000   47.067154791   15.493495083   542.9141   5   6   7.4103   6.4377  17.3501   5.7669  -8.1284  -8.1451   0.00    0.0
2014/03/15 00:47:30.000   47.067154064   15.493495063   542.9520   5   6   7.3624   6.3840  17.3876   5.6989  -8.0558  -8.0592   0.00    0.0
2014/03/15 00:48:00.000   47.067154528   15.493495119   542.9275   5   6   7.3156   6.3314  17.4280   5.6318  -7.9837  -7.9734   0.00    0.0
2014/03/15 00:48:30.000   47.067154672   15.493494680   542.9424   5   6   7.2701   6.2797  17.4713   5.5656  -7.9122  -7.8876   0.00    0.0
2014/03/15 00:49:00.000   47.067154630   15.493494984   542.9084   5   6   7.2257   6.2289  17.5176   5.5001  -7.8411  -7.8018   0.00    0.0
2014/03/15 00:49:30.000   47.067154752   15.493494376   542.9403   5   6   7.1824   6.1791  17.5668   5.4355  -7.7705  -7.7160   0.00    0.0
2014/03/15 00:50:00.000   47.067154824   15.493494417   542.7838   5   6   7.1402   6.1303  17.6190   5.3716  -7.7003  -7.6300   0.00    0.0
2014/03/15 00:50:30.000   47.067155038   15.493494145   542.7352   5   6   7.0992   6.0823  17.6742   5.3085  -7.6304  -7.5439   0.00    0.0
2014/03/15 00:51:00.000   47.067154282   15.493493622   542.9291   5   6   7.0592   6.0352  17.7326   5.2462  -7.5609  -7.4574   0.00    0.0
2014/03/15 00:51:30.000   47.067153832   15.493493152   543.1139   5   6   7.0203   5.9891  17.7940   5.1845  -7.4916  -7.3706   0.00    0.0
2014/03/15 00:52:00.000   47.067153885   15.493493397   543.3169   5   6   6.9825   5.9437  17.8585   5.1236  -7.4225  -7.2834   0.00    0.0
2014/03/15 00:52:30.000   47.067153236   15.493492773   543.5338   5   6   6.9458   5.8993  17.9262   5.0634  -7.3536  -7.1957   0.00    0.0
2014/03/15 00:53:00.000   47.067153273   15.493493505   543.5353   5   6   6.9101   5.8556  17.9972   5.0039  -7.2848  -7.1073   0.00    0.0
2014/03/15 00:53:30.000   47.067153337   15.493493545   543.5417   5   6   6.8755   5.8128  18.0714   4.9451  -7.2161  -7.0183   0.00    0.0
2014/03/15 00:54:00.000   47.067153184   15.493493070   543.5552   5   6   6.8419   5.7708  18.1489   4.8869  -7.1474  -6.9285   0.00    0.0
2014/03/15 00:54:30.000   47.067152089   15.493491939   543.6310   5   6   6.8094   5.7296  18.2297   4.8294  -7.0786  -6.8377   0.00    0.0
2014/03/15 00:55:00.000   47.067152075   15.493491622   543.9042   5   6   6.7779   5.6892  18.3139   4.7725  -7.0097  -6.7460   0.00    0.0
2014/03/15 00:55:30.000   47.067151203   15.493490828   544.0568   5   6   6.7474   5.6496  18.4015   4.7162  -6.9407  -6.6531   0.00    0.0
2014/03/15 00:56:00.000   47.067151328   15.493490962   544.0087   5   6   6.7179   5.6108  18.4927   4.6606  -6.8713  -6.5590   0.00    0.0
2014/03/15 00:56:30.000   47.067151044   15.493490877   543.9608   5   6   6.6894   5.5727  18.5874   4.6055  -6.8017  -6.4634   0.00    0.0
2014/03/15 00:57:00.000   47.067150897   15.493490859   543.8796   5   6   6.6619   5.5353  18.6856   4.5511  -6.7317  -6.3664   0.00    0.0
2014/03/15 00:57:30.000   47.067150802   15.493490614   543.8213   5   6   6.6355   5.4987  18.7875   4.4973  -6.6613  -6.2677   0.00    0.0
2014/03/15 00:58:00.000   47.067151301   15.493490911   543.8998   5   6   6.6100   5.4629  18.8931   4.4440  -6.5903  -6.1671   0.00    0.0
2014/03/15 00:58:30.000   47.067151209   15.493491001   543.7771   5   6   6.5855   5.4277  19.0025   4.3913  -6.5186  -6.0645   0.00    0.0
2014/03/15 00:59:00.000   47.067151655   15.493491793   543.6445   5   6   6.5620   5.3933  19.1156   4.3392  -6.4463  -5.9596   0.00    0.0
2014/03/15 00:59:30.000   47.067151800   15.493491936   543.4872   5   6   6.5395   5.3596  19.2327   4.2877  -6.3731  -5.8523   0.00    0.0
2014/03/15 01:00:00.000   47.067151365   15.493492002   543.4380   5   6   6.5180   5.3266  19.3537   4.2367  -6.2990  -5.7423   0.00    0.0
2014/03/15 01:00:30.000   47.067151505   15.493491878   543.4620   5   6   6.4975   5.2943  19.4787   4.1863  -6.2238  -5.6294   0.00    0.0
2014/03/15 01:01:00.000   47.067151456   15.493491596   543.4707   5   6   6.4779   5.2627  19.6077   4.1365  -6.1475  -5.5132   0.00    0.0
2014/03/15 01:01:30.000   47.067150531   15.493491455   543.7618   5   7   6.3272   5.2316  12.8218   4.0796  -6.0100  -3.0945   0.00    0.0
2014/03/15 01:02:00.000   47.067150661   15.493491238   543.6748   5   7   6.3174   5.2016  12.8655   4.0365  -5.9741  -2.9463   0.00    0.0
2014/03/15 01:02:30.000   47.067150937   15.493490606   543.8042   5   7   6.3085   5.1721  12.9108   3.9938  -5.9384  -2.7898   0.00    0.0
2014/03/15 01:03:00.000   47.067151011   15.493489858   543.9237   5   7   6.3004   5.1430  12.9576   3.9514  -5.9030  -2.6233   0.00    0.0
2014/03/15 01:03:30.000   47.067150684   15.493489303   543.9817   5   7   6.2931   5.1144  13.0060   3.9094  -5.8679  -2.4448   0.00    0.0
2014/03/15 01:04:00.000   47.067150572   15.493489298   544.0635   5   7   6.2867   5.0862  13.0561   3.8678  -5.8330  -2.2513   0.00    0.0
2014/03/15 01:04:30.000   47.067150573   15.493488896   544.1661   5   7   6.2811   5.0584  13.1077   3.8265  -5.7984  -2.0384   0.00    0.0
2014/03/15 01:05:00.000   47.067150775   15.493488582   544.2339   5   7   6.2764   5.0311  13.1609   3.7856  -5.7639  -1.7992   0.00    0.0
2014/03/15 01:05:30.000   47.067150750   15.493488316   544.3635   5   7   6.2724   5.0042  13.2158   3.7450  -5.7297  -1.5212   0.00    0.0
2014/03/15 01:06:00.000   47.067150796   15.493488150   544.4413   5   7   6.2693   4.9777  13.2722   3.7047  -5.6956  -1.1769   0.00    0.0
2014/03/15 01:06:30.000   47.067151098   15.493487955   544.4436   5   7   6.2670   4.9516  13.3302   3.6648  -5.6617  -0.6709   0.00    0.0
2014/03/15 01:07:00.000   47.067151246   15.493487799   544.3124   5   7   6.2656   4.9259  13.3898   3.6252  -5.6279   0.7008   0.00    0.0
2014/03/15 01:07:30.000   47.067151371   15.493487141   544.2705   5   7   6.2649   4.9005  13.4510   3.5859  -5.5942   1.1997   0.00    0.0
2014/03/15 01:08:00.000   47.067151349   15.493486770   544.2604   5   7   6.2651   4.8756  13.5139   3.5470  -5.5605   1.5474   0.00    0.0
2014/03/15 01:08:30.000   47.067151414   15.493486880   544.2790   5   7   6.2660   4.8510  13.5783   3.5084  -5.5269   1.8323   0.00    0.0
2014/03/15 01:09:00.000   47.067151033   15.493486042   544.2120   5   7   6.2678   4.8268  13.6442   3.4701  -5.4934   2.0803   0.00    0.0
2014/03/15 01:09:30.000   47.067150508   15.493485941   544.0283   5   7   6.2703   4.8030  13.7118   3.4322  -5.4599   2.3036   0.00    0.0
2014/03/15 01:10:00.000   47.067150279   15.493485876   543.9668   5   7   6.2737   4.7796  13.7809   3.3945  -5.4263   2.5087   0.00    0.0
2014/03/15 01:10:30.000   47.067150199   15.493485479   543.9711   5   7   6.2778   4.7565  13.8516   3.3572  -5.3927   2.6999   0.00    0.0
2014/03/15 01:11:00.000   47.067150614   15.493485682   544.0404   5   7   6.2827   4.7337  13.9238   3.3203  -5.3590   2.8800   0.00    0.0
2014/03/15 01:11:30.000   47.067150916   15.493485445   544.2300   5   7   6.2884   4.7113  13.9976   3.2837  -5.3252   3.0511   0.00    0.0
2014/03/15 01:12:00.000   47.067150933   15.493485176   544.2928   5   7   6.2949   4.6892  14.0729   3.2474  -5.2912   3.2145   0.00    0.0
2014/03/15 01:12:30.000   47.067151269   15.493485262   544.3146   5   7   6.3022   4.6675  14.1497   3.2114  -5.2571   3.3714   0.00    0.0
2014/03/15 01:13:00.000   47.067151111   15.493485439   544.3025   5   7   6.3102   4.6461  14.2279   3.1758  -5.2228   3.5228   0.00    0.0
2014/03/15 01:13:30.000   47.067150520   15.493485740   544.2116   5   7   6.3189   4.6250  14.3077   3.1406  -5.1883   3.6694   0.00    0.0
2014/03/15 01:14:00.000   47.067149988   15.493485490   544.1207   5   7   6.3284   4.6043  14.3888   3.1057  -5.1535   3.8116   0.00    0.0
2014/03/15 01:14:30.000   47.067150405   15.493485820   544.0517   5   7   6.3387   4.5839  14.4714   3.0712  -5.1183   3.9501   0.00    0.0
2014/03/15 01:15:00.000   47.067150881   15.493486584   543.9766   5   7   6.3496   4.5638  14.5554   3.0371  -5.0829   4.0851   0.00    0.0
2014/03/15 01:15:30.000   47.067151065   15.493486784   543.9527   5   7   6.3613   4.5440  14.6407   3.0033  -5.0470   4.2171   0.00    0.0
2014/03/15 01:16:00.000   47.067151218   15.493486705   543.9056   5   7   6.3737   4.5246  14.7273   2.9700  -5.0107   4.3463   0.00    0.0
2014/03/15 01:16:30.000   47.067150906   15.493486893   543.8142   5   7   6.3868   4.5054  14.8152   2.9371  -4.9740   4.4730   0.00    0.0
2014/03/15 01:17:00.000   47.067150803   15.493486831   543.8492   5   7   6.4005   4.4866  14.9043   2.9046  -4.9368   4.5972   0.00    0.0
2014/03/15 01:17:30.000   47.067151247   15.493487324   544.0060   5   7   6.4150   4.4680  14.9945   2.8725  -4.8989   4.7194   0.00    0.0
2014/03/15 01:18:00.000   47.067151752   15.493487833   544.0330   5   7   6.4300   4.4498  15.0859   2.8409  -4.8605   4.8394   0.00    0.0
2014/03/15 01:18:30.000   47.067151315   15.493487308   544.0545   5   7   6.4457   4.4319  15.1784   2.8097  -4.8215   4.9576   0.00    0.0
2014/03/15 01:19:00.000   47.067151535   15.493486865   544.1574   5   7   6.4621   4.4142  15.2719   2.7791  -4.7817   5.0740   0.00    0.0
2014/03/15 01:19:30.000   47.067150808   15.493486786   544.2020   5   7   6.4790   4.3969  15.3663   2.7489  -4.7412   5.1886   0.00    0.0
2014/03/15 01:20:00.000   47.067150952   15.493486925   544.1485   5   7   6.4965   4.3799  15.4616   2.7193  -4.6998   5.3016   0.00    0.0
2014/03/15 01:20:30.000   47.067151227   15.493487065   544.2032   5   7   6.5145   4.3632  15.5577   2.6902  -4.6576   5.4131   0.00    0.0
2014/03/15 01:21:00.000   47.067151547   15.493487352   544.3070   5   7   6.5331   4.3467  15.6545   2.6617  -4.6145   5.5229   0.00    0.0
2014/03/15 01:21:30.000   47.067152145   15.493487880   544.4531   5   7   6.5522   4.3306  15.7519   2.6338  -4.5703   5.6313   0.00    0.0
2014/03/15 01:22:00.000   47.067152568   15.493487827   544.6326   5   7   6.5717   4.3148  15.8498   2.6065  -4.5251   5.7382   0.00    0.0
2014/03/15 01:22:30.000   47.067152653   15.493488308   544.6920   5   7   6.5917   4.2993  15.9482   2.5798  -4.4788   5.8436   0.00    0.0
2014/03/15 01:23:00.000   47.067152394   15.493488199   544.8239   5   7   6.6121   4.2841  16.0469   2.5537  -4.4312   5.9475   0.00    0.0
2014/03/15 01:23:30.000   47.067152826   15.493488099   544.9127   5   7   6.6329   4.2692  16.1458   2.5283  -4.3824   6.0499   0.00    0.0
2014/03/15 01:24:00.000   47.067152807   15.493488354   544.8294   5   7   6.6541   4.2546  16.2448   2.5037  -4.3323   6.1508   0.00    0.0
2014/03/15 01:24:30.000   47.067153129   15.493488455   544.7088   5   7   6.6756   4.2403  16.3438   2.4797  -4.2807   6.2502   0.00    0.0
2014/03/15 01:25:00.000   47.067153559   15.493488565   544.6786   5   7   6.6973   4.2263  16.4426   2.4565  -4.2276   6.3481   0.00    0.0
2014/03/15 01:25:30.000   47.067153330   15.493488262   544.6488   5   7   6.7193   4.2126  16.5411   2.4340  -4.1729   6.4443   0.00    0.0
2014/03/15 01:26:00.000   47.067153653   15.493488189   544.8622   5   7   6.7414   4.1993  16.6392   2.4123  -4.1165   6.5390   0.00    0.0
2014/03/15 01:26:30.000   47.067153149   15.493488189   544.9928   5   7   6.7637   4.1863  16.7367   2.3915  -4.0583   6.6319   0.00    0.0
2014/03/15 01:27:00.000   47.067152840   15.493487511   545.0661   5   7   6.7861   4.1736  16.8334   2.3714  -3.9982   6.7231   0.00    0.0
2014/03/15 01:27:30.000   47.067152840   15.493487098   545.0448   5   7   6.8086   4.1612  16.9292   2.3522  -3.9361   6.8124   0.00    0.0
2014/03/15 01:28:00.000   47.067152777   15.493487280   545.1012   5   7   6.8311   4.1492  17.0240   2.3338  -3.8720   6.8999   0.00    0.0
2014/03/15 01:28:30.000   47.067152619   15.493487277   545.0622   5   7   6.8535   4.1375  17.1175   2.3163  -3.8055   6.9854   0.00    0.0
2014/03/15 01:29:00.000   47.067152690   15.493487313   545.0950   5   7   6.8758   4.1262  17.2096   2.2997  -3.7367   7.0689   0.00    0.0
2014/03/15 01:29:30.000   47.067153470   15.493487513   545.1191   5   7   6.8980   4.1152  17.3001   2.2839  -3.6655   7.1502   0.00    0.0
2014/03/15 01:30:00.000   47.067153764   15.493488043   545.0336   5   7   6.9199   4.1046  17.3888   2.2691  -3.5915   7.2294   0.00    0.0
2014/03/15 01:30:30.000   47.067154361   15.493488090   544.9169   5   7   6.9416   4.0943  17.4755   2.2551  -3.5148   7.3062   0.00    0.0
2014/03/15 01:31:00.000   47.067154726   15.493487932   544.9658   5   7   6.9630   4.0844  17.5601   2.2420  -3.4351   7.3806   0.00    0.0
2014/03/15 01:31:30.000   47.067155529   15.493487826   545.0145   5   7   6.9840   4.0749  17.6423   2.2297  -3.3521   7.4525   0.00    0.0
2014/03/15 01:32:00.000   47.067155237   15.493487799   544.9893   5   7   7.0045   4.0657  17.7219   2.2184  -3.2659   7.5219   0.00    0.0
2014/03/15 01:32:30.000   47.067155287   15.493487860   545.0020   5   7   7.0246   4.0570  17.7988   2.2078  -3.1759   7.5885   0.00    0.0
2014/03/15 01:33:00.000   47.067155674   15.493487630   544.9005   5   7   7.0441   4.0486  17.8728   2.1981  -3.0821   7.6524   0.00    0.0
2014/03/15 01:33:30.000   47.067155738   15.493487371   544.9138   5   7   7.0630   4.0406  17.9436   2.1892  -2.9840   7.7133   0.00    0.0
2014/03/15 01:34:00.000   47.067155432   15.493487242   544.9115   5   7   7.0812   4.0330  18.0110   2.1810  -2.8814   7.7713   0.00    0.0
2014/03/15 01:34:30.000   47.067155667   15.493487302   545.0028   5   7   7.0987   4.0258  18.0750   2.1736  -2.7737   7.8261   0.00    0.0
2014/03/15 01:35:00.000   47.067155883   15.493487515   545.1186   5   7   7.1154   4.0190  18.1353   2.1668  -2.6604   7.8778   0.00    0.0
2014/03/15 01:35:30.000   47.067155972   15.493487927   545.1830   5   7   7.1312   4.0127  18.1916   2.1607  -2.5410   7.9262   0.00    0.0
2014/03/15 01:36:00.000   47.067155926   15.493487983   545.1688   5   7   7.1462   4.0068  18.2440   2.1552  -2.4146   7.9711   0.00    0.0
2014/03/15 01:36:30.000   47.067155651   15.493487342   545.1207   5   7   7.1603   4.0012  18.2922   2.1502  -2.2801   8.0127   0.00    0.0
2014/03/15 01:37:00.000   47.067155423   15.493487187   545.0519   5   7   7.1733   3.9961  18.3360   2.1457  -2.1363   8.0506   0.00    0.0
2014/03/15 01:37:30.000   47.067155280   15.493487499   544.9715   5   7   7.1854   3.9915  18.3753   2.1416  -1.9812   8.0850   0.00    0.0
2014/03/15 01:38:00.000   47.067154710   15.493487516   544.8171   5   7   7.1964   3.9872  18.4100   2.1378  -1.8121   8.1156   0.00    0.0
2014/03/15 01:38:30.000   47.067154319   15.493487592   544.8253   5   7   7.2062   3.9834  18.4400   2.1343  -1.6249   8.1425   0.00    0.0
2014/03/15 01:39:00.000   47.067154666   15.493488021   544.7333   5   7   7.2150   3.9800  18.4651   2.1311  -1.4128   8.1656   0.00    0.0
2014/03/15 01:39:30.000   47.067155085   15.493488560   544.6977   5   7   7.2226   3.9771  18.4853   2.1280  -1.1624   8.1848   0.00    0.0
2014/03/15 01:40:00.000   47.067154574   15.493488753   544.5992   5   7   7.2290   3.9746  18.5005   2.1249  -0.8406   8.2001   0.00    0.0
2014/03/15 01:40:30.000   47.067154408   15.493488686   544.5318   5   7   7.2342   3.9725  18.5106   2.1218  -0.2520   8.2115   0.00    0.0
2014/03/15 01:41:00.000   47.067154473   15.493488231   544.5744   5   7   7.2382   3.9708  18.5157   2.1187   0.7600   8.2189   0.00    0.0
2014/03/15 01:41:30.000   47.067154964   15.493488507   544.5536   5   7   7.2409   3.9696  18.5155   2.1154   1.1026   8.2223   0.00    0.0
2014/03/15 01:42:00.000   47.067155196   15.493488910   544.5158   5   7   7.2425   3.9688  18.5103   2.1118   1.3602   8.2217   0.00    0.0
2014/03/15 01:42:30.000   47.067155311   15.493488848   544.5076   5   7   7.2428   3.9684  18.4999   2.1080   1.5749   8.2172   0.00    0.0
2014/03/15 01:43:00.000   47.067155187   15.493488851   544.5655   5   7   7.2418   3.9684  18.4844   2.1037   1.7621   8.2087   0.00    0.0
2014/03/15 01:43:30.000   47.067154735   15.493489217   544.4629   5   7   7.2397   3.9688  18.4638   2.0990   1.9297   8.1962   0.00    0.0
2014/03/15 01:44:00.000   47.067154848   15.493489235   544.4277   5   7   7.2364   3.9696  18.4382   2.0937   2.0822   8.1799   0.00    0.0
2014/03/15 01:44:30.000   47.067154824   15.493489207   544.2555   5   7   7.2319   3.9708  18.4076   2.0879   2.2226   8.1596   0.00    0.0
2014/03/15 01:45:00.000   47.067154942   15.493489176   544.1684   5   7   7.2263   3.9724  18.3722   2.0813   2.3529   8.1356   0.00    0.0
2014/03/15 01:45:30.000   47.067154956   15.493489265   544.1214   5   7   7.2195   3.9744  18.3320   2.0741   2.4746   8.1078   0.00    0.0
2014/03/15 01:46:00.000   47.067153596   15.493489051   544.1108   5   7   7.2116   3.9768  18.2871   2.0660   2.5888   8.0763   0.00    0.0
2014/03/15 01:46:30.000   47.067152992   15.493488042   544.0253   5   7   7.2027   3.9795  18.2377   2.0570   2.6964   8.0411   0.00    0.0
2014/03/15 01:47:00.000   47.067153045   15.493488308   543.8525   5   7   7.1928   3.9826  18.1839   2.0470   2.7979   8.0025   0.00    0.0
2014/03/15 01:47:30.000   47.067152426   15.493487927   543.7901   5   7   7.1819   3.9860  18.1258   2.0361   2.8941   7.9603   0.00    0.0
2014/03/15 01:48:00.000   47.067152278   15.493487972   543.6899   5   7   7.1701   3.9898  18.0637   2.0241   2.9853   7.9148   0.00    0.0
2014/03/15 01:48:30.000   47.067152659   15.493488599   543.7306   5   7   7.1574   3.9940  17.9975   2.0110   3.0719   7.8660   0.00    0.0
2014/03/15 01:49:00.000   47.067152414   15.493488668   543.6284   5   7   7.1439   3.9984  17.9277   1.9967   3.1543   7.8140   0.00    0.0
2014/03/15 01:49:30.000   47.067152328   15.493488326   543.5808   5   7   7.1297   4.0032  17.8542   1.9812   3.2327   7.7589   0.00    0.0
2014/03/15 01:50:00.000   47.067152078   15.493487972   543.4375   5   7   7.1147   4.0083  17.7774   1.9644   3.3075   7.7008   0.00    0.0
2014/03/15 01:50:30.000   47.067151668   15.493488052   543.2923   5   7   7.0990   4.0136  17.6973   1.9462   3.3788   7.6399   0.00    0.0
2014/03/15 01:51:00.000   47.067151807   15.493488185   543.2955   5   7   7.0828   4.0193  17.6142   1.9266   3.4469   7.5761   0.00    0.0
2014/03/15 01:51:30.000   47.067151400   15.493488115   543.2253   5   7   7.0660   4.0253  17.5283   1.9055   3.5119   7.5098   0.00    0.0
2014/03/15 01:52:00.000   47.067151002   15.493487944   543.1299   5   7   7.0487   4.0316  17.4397   1.8829   3.5740   7.4408   0.00    0.0
2014/03/15 01:52:30.000   47.067151229   15.493488108   543.1575   5   7   7.0310   4.0381  17.3487   1.8588   3.6334   7.3694   0.00    0.0
2014/03/15 01:53:00.000   47.067151195   15.493488734   543.0912   5   7   7.0130   4.0449  17.2554   1.8329   3.6902   7.2957   0.00    0.0
2014/03/15 01:53:30.000   47.067150643   15.493488301   543.0805   5   7   6.9946   4.0520  17.1601   1.8054   3.7446   7.2197   0.00    0.0
2014/03/15 01:54:00.000   47.067150286   15.493488080   543.2906   5   7   6.9759   4.0594  17.0629   1.7760   3.7966   7.1416   0.00    0.0
2014/03/15 01:54:30.000   47.067150221   15.493488841   543.4274   5   7   6.9571   4.0670  16.9640   1.7447   3.8465   7.0614   0.00    0.0
2014/03/15 01:55:00.000   47.067149908   15.493489027   543.4570   5   7   6.9380   4.0748  16.8636   1.7114   3.8942   6.9793   0.00    0.0
2014/03/15 01:55:30.000   47.067149200   15.493489091   543.3493   5   7   6.9189   4.0829  16.7618   1.6760   3.9401   6.8953   0.00    0.0
2014/03/15 01:56:00.000   47.067148836   15.493488885   543.2315   5   7   6.8998   4.0913  16.6589   1.6384   3.9840   6.8096   0.00    0.0
2014/03/15 01:56:30.000   47.067148419   15.493488892   543.0834   5   7   6.8806   4.0999  16.5549   1.5984   4.0263   6.7221   0.00    0.0
2014/03/15 01:57:00.000   47.067148342   15.493488684   542.9138   5   7   6.8615   4.1087  16.4502   1.5559   4.0668   6.6331   0.00    0.0
2014/03/15 01:57:30.000   47.067148068   15.493488760   542.7220   5   7   6.8424   4.1178  16.3447   1.5107   4.1058   6.5425   0.00    0.0
2014/03/15 01:58:00.000   47.067147864   15.493488606   542.6351   5   7   6.8235   4.1271  16.2387   1.4625   4.1433   6.4504   0.00    0.0
2014/03/15 01:58:30.000   47.067147982   15.493488339   542.5064   5   7   6.8047   4.1366  16.1323   1.4111   4.1794   6.3569   0.00    0.0
2014/03/15 01:59:00.000   47.067148415   15.493487566   542.4752   5   7   6.7862   4.1464  16.0256   1.3560   4.2142   6.2621   0.00    0.0
2014/03/15 01:59:30.000   47.067147907   15.493486794   542.2349   5   7   6.7679   4.1564  15.9188   1.2970   4.2478   6.1660   0.00    0.0
2014/03/15 02:00:00.000   47.067148008   15.493487494   542.4087   5   7   6.7499   4.1667  15.8120   1.2334   4.2802   6.0687   0.00    0.0
2014/03/15 02:00:30.000   47.067148666   15.493487406   542.3047   5   7   6.7322   4.1772  15.7053   1.1645   4.3115   5.9701   0.00    0.0
2014/03/15 02:01:00.000   47.067149141   15.493487235   542.3956   5   7   6.7148   4.1879  15.5988   1.0894   4.3418   5.8703   0.00    0.0
2014/03/15 02:01:30.000   47.067149444   15.493487391   542.3390   5   7   6.6978   4.1988  15.4926   1.0066   4.3712   5.7694   0.00    0.0
2014/03/15 02:02:00.000   47.067149655   15.493487179   542.3863   5   7   6.6813   4.2100  15.3869   0.9142   4.3996   5.6674   0.00    0.0
2014/03/15 02:02:30.000   47.067149866   15.493487581   542.2642   5   7   6.6651   4.2214  15.2816   0.8090   4.4272   5.5642   0.00    0.0
2014/03/15 02:03:00.000   47.067150081   15.493488138   542.3361   5   7   6.6494   4.2331  15.1769   0.6849   4.4541   5.4600   0.00    0.0
2014/03/15 02:03:30.000   47.067149886   15.493488153   542.2281   5   7   6.6341   4.2450  15.0729   0.5292   4.4802   5.3546   0.00    0.0
2014/03/15 02:04:00.000   47.067150178   15.493488049   542.2361   5   7   6.6193   4.2571  14.9696   0.2952   4.5056   5.2481   0.00    0.0
2014/03/15 02:04:30.000   47.067150305   15.493488352   542.2482   5   7   6.6051   4.2695  14.8672  -0.3309   4.5304   5.1404   0.00    0.0
2014/03/15 02:05:00.000   47.067150027   15.493488445   542.2471   5   7   6.5913   4.2821  14.7655  -0.5565   4.5547   5.0316   0.00    0.0
2014/03/15 02:05:30.000   47.067150027   15.493488767   542.2713   5   7   6.5781   4.2949  14.6649  -0.7166   4.5784   4.9216   0.00    0.0
2014/03/15 02:06:00.000   47.067149584   15.493488893   542.1516   5   7   6.5655   4.3080  14.5652  -0.8491   4.6016   4.8103   0.00    0.0
2014/03/15 02:06:30.000   47.067149245   15.493488736   542.0585   5   7   6.5534   4.3214  14.4665  -0.9653   4.6244   4.6977   0.00    0.0
2014/03/15 02:07:00.000   47.067149443   15.493488541   542.0295   5   7   6.5418   4.3350  14.3689  -1.0706   4.6468   4.5837   0.00    0.0
2014/03/15 02:07:30.000   47.067149714   15.493488051   542.0034   5   7   6.5309   4.3489  14.2724  -1.1679   4.6688   4.4683   0.00    0.0
2014/03/15 02:08:00.000   47.067149782   15.493487540   541.9183   5   7   6.5205   4.3630  14.1770  -1.2590   4.6905   4.3513   0.00    0.0
2014/03/15 02:08:30.000   47.067149417   15.493487561   541.8455   5   7   6.5107   4.3774  14.0828  -1.3452   4.7118   4.2325   0.00    0.0
2014/03/15 02:09:00.000   47.067149033   15.493487261   541.6530   5   7   6.5015   4.3920  13.9898  -1.4274   4.7329   4.1120   0.00    0.0
2014/03/15 02:09:30.000   47.067148675   15.493487366   541.5626   5   7   6.4930   4.4069  13.8980  -1.5062   4.7538   3.9895   0.00    0.0
2014/03/15 02:10:00.000   47.067149081   15.493487229   541.5746   5   7   6.4850   4.4221  13.8075  -1.5821   4.7744   3.8648   0.00    0.0
2014/03/15 02:10:30.000   47.067148728   15.493486885   541.4141   5   7   6.4776   4.4375  13.7183  -1.6554   4.7949   3.7376   0.00    0.0
2014/03/15 02:11:00.000   47.067148972   15.493486927   541.5527   5   7   6.4708   4.4532  13.6303  -1.7266   4.8151   3.6079   0.00    0.0
2014/03/15 02:11:30.000   47.067149068   15.493486353   541.5321   5   7   6.4647   4.4692  13.5436  -1.7959   4.8353   3.4751   0.00    0.0
2014/03/15 02:12:00.000   47.067149152   15.493485987   541.5953   5   7   6.4592   4.4855  13.4582  -1.8634   4.8553   3.3391   0.00    0.0
2014/03/15 02:12:30.000   47.067149223   15.493485937   541.5940   5   7   6.4542   4.5020  13.3741  -1.9294   4.8753   3.1992   0.00    0.0
2014/03/15 02:13:00.000   47.067149012   15.493486446   541.6515   5   7   6.4499   4.5189  13.2914  -1.9940   4.8951   3.0550   0.00    0.0
2014/03/15 02:13:30.000   47.067148951   15.493486595   541.7680   5   7   6.4462   4.5360  13.2099  -2.0574   4.9149   2.9058   0.00    0.0
2014/03/15 02:14:00.000   47.067148759   15.493486371   541.8353   5   7   6.4431   4.5534  13.1298  -2.1195   4.9347   2.7508   0.00    0.0
2014/03/15 02:14:30.000   47.067148503   15.493486306   541.8843   5   7   6.4406   4.5711  13.0510  -2.1807   4.9544   2.5889   0.00    0.0
2014/03/15 02:15:00.000   47.067148906   15.493486537   541.9899   5   7   6.4386   4.5891  12.9735  -2.2408   4.9742   2.4186   0.00    0.0
2014/03/15 02:15:30.000   47.067149236   15.493486473   542.0484   5   7   6.4373   4.6073  12.8973  -2.3001   4.9939   2.2381   0.00    0.0
2014/03/15 02:16:00.000   47.067148987   15.493486758   542.1418   5   7   6.4366   4.6259  12.8224  -2.3585   5.0137   2.0445   0.00    0.0
2014/03/15 02:16:30.000   47.067148336   15.493486800   542.1255   5   7   6.4364   4.6448  12.7489  -2.4162   5.0334   1.8336   0.00    0.0
2014/03/15 02:17:00.000   47.067148435   15.493486528   542.1079   5   7   6.4368   4.6640  12.6766  -2.4731   5.0533   1.5987   0.00    0.0
2014/03/15 02:17:30.000   47.067148011   15.493486738   542.0547   5   7   6.4378   4.6834  12.6056  -2.5294   5.0731   1.3269   0.00    0.0
2014/03/15 02:18:00.000   47.067147912   15.493486932   542.0393   5   7   6.4394   4.7032  12.5359  -2.5851   5.0930   0.9880   0.00    0.0
2014/03/15 02:18:30.000   47.067148339   15.493486620   542.0869   5   7   6.4415   4.7233  12.4674  -2.6401   5.1130   0.4498   0.00    0.0
2014/03/15 02:19:00.000   47.067148277   15.493486223   542.0020   5   7   6.4441   4.7437  12.4002  -2.6947   5.1331  -0.7490   0.00    0.0
2014/03/15 02:19:30.000   47.067147441   15.493485602   541.9004   5   7   6.4473   4.7644  12.3343  -2.7487   5.1533  -1.1463   0.00    0.0
2014/03/15 02:20:00.000   47.067148075   15.493485127   541.8314   5   7   6.4511   4.7854  12.2695  -2.8022   5.1735  -1.4343   0.00    0.0
2014/03/15 02:20:30.000   47.067148389   15.493485335   541.8812   5   7   6.4553   4.8067  12.2060  -2.8553   5.1938  -1.6705   0.00    0.0
2014/03/15 02:21:00.000   47.067148592   15.493485178   541.9832   5   7   6.4601   4.8284  12.1437  -2.9080   5.2143  -1.8746   0.00    0.0
2014/03/15 02:21:30.000   47.067148215   15.493484998   541.9546   5   7   6.4654   4.8503  12.0826  -2.9602   5.2348  -2.0563   0.00    0.0
2014/03/15 02:22:00.000   47.067148671   15.493485192   541.9667   5   7   6.4712   4.8726  12.0226  -3.0121   5.2555  -2.2211   0.00    0.0
2014/03/15 02:22:30.000   47.067149040   15.493485173   541.9473   5   7   6.4775   4.8951  11.9638  -3.0636   5.2762  -2.3725   0.00    0.0
2014/03/15 02:23:00.000   47.067149135   15.493485059   541.9735   5   7   6.4843   4.9180  11.9061  -3.1148   5.2971  -2.5131   0.00    0.0
2014/03/15 02:23:30.000   47.067149124   15.493484831   541.8718   5   7   6.4915   4.9412  11.8496  -3.1656   5.3181  -2.6446   0.00    0.0
2014/03/15 02:24:00.000   47.067149020   15.493485254   541.8671   5   7   6.4993   4.9647  11.7941  -3.2162   5.3392  -2.7684   0.00    0.0
2014/03/15 02:24:30.000   47.067148755   15.493485804   541.8353   5   7   6.5074   4.9886  11.7398  -3.2664   5.3604  -2.8854   0.00    0.0
2014/03/15 02:25:00.000   47.067148765   15.493486429   541.8906   5   7   6.5161   5.0127  11.6865  -3.3163   5.3817  -2.9964   0.00    0.0
2014/03/15 02:25:30.000   47.067147937   15.493486467   541.8138   5   7   6.5251   5.0372  11.6342  -3.3660   5.4031  -3.1022   0.00    0.0
2014/03/15 02:26:00.000   47.067147603   15.493486796   541.9136   5   7   6.5346   5.0619  11.5830  -3.4154   5.4247  -3.2033   0.00    0.0
2014/03/15 02:26:30.000   47.067147803   15.493486895   541.9283   5   7   6.5445   5.0870  11.5328  -3.4646   5.4464  -3.3001   0.00    0.0
2014/03/15 02:27:00.000   47.067147360   15.493487405   542.0168   5   7   6.5548   5.1124  11.4836  -3.5135   5.4682  -3.3930   0.00    0.0
2014/03/15 02:27:30.000   47.067147070   15.493487819   542.0776   5   7   6.5655   5.1381  11.4353  -3.5622   5.4901  -3.4823   0.00    0.0
2014/03/15 02:28:00.000   47.067146844   15.493488075   542.1166   5   7   6.5766   5.1641  11.3880  -3.6106   5.5121  -3.5685   0.00    0.0
2014/03/15 02:28:30.000   47.067146565   15.493487960   542.2631   5   7   6.5881   5.1904  11.3417  -3.6589   5.5342  -3.6515   0.00    0.0
2014/03/15 02:29:00.000   47.067145080   15.493490320   542.7719   5   8   6.2306   3.4741   7.6252  -2.2953  -1.2506   2.0535   0.00    0.0
2014/03/15 02:29:30.000   47.067144409   15.493490229   542.7617   5   8   6.2203   3.4754   7.6121  -2.3006  -1.1898   2.0167   0.00    0.0
2014/03/15 02:30:00.000   47.067143901   15.493490595   542.7260   5   8   6.2099   3.4769   7.5991  -2.3058  -1.1259   1.9791   0.00    0.0
2014/03/15 02:30:30.000   47.067143882   15.493490995   542.8018   5   8   6.1994   3.4784   7.5861  -2.3110  -1.0584   1.9408   0.00    0.0
2014/03/15 02:31:00.000   47.067143560   15.493491019   542.7316   5   8   6.1886   3.4800   7.5732  -2.3161  -0.9864   1.9016   0.00    0.0
2014/03/15 02:31:30.000   47.067144186   15.493491016   542.7063   5   8   6.1778   3.4818   7.5602  -2.3212  -0.9089   1.8616   0.00    0.0
2014/03/15 02:32:00.000   47.067144816   15.493491350   542.6891   5   8   6.1668   3.4837   7.5473  -2.3262  -0.8244   1.8207   0.00    0.0
2014/03/15 02:32:30.000   47.067144375   15.493491631   542.6247   5   8   6.1556   3.4857   7.5344  -2.3312  -0.7306   1.7789   0.00    0.0
2014/03/15 02:33:00.000   47.067144293   15.493492268   542.5293   5   8   6.1444   3.4879   7.5215  -2.3362  -0.6231   1.7361   0.00    0.0
2014/03/15 02:33:30.000   47.067144664   15.493492373   542.4908   5   8   6.1330   3.4901   7.5087  -2.3411  -0.4931   1.6923   0.00    0.0
2014/03/15 02:34:00.000   47.067145000   15.493492243   542.4256   5   8   6.1215   3.4925   7.4959  -2.3459  -0.3141   1.6474   0.00    0.0
2014/03/15 02:34:30.000   47.067145684   15.493491996   542.3974   5   8   6.1098   3.4950   7.4831  -2.3508   0.2132   1.6014   0.00    0.0
2014/03/15 02:35:00.000   47.067146092   15.493491541   542.4221   5   8   6.0981   3.4976   7.4704  -2.3556   0.4347   1.5542   0.00    0.0
2014/03/15 02:35:30.000   47.067146479   15.493491345   542.4205   5   8   6.0862   3.5003   7.4577  -2.3604   0.5762   1.5056   0.00    0.0
2014/03/15 02:36:00.000   47.067146009   15.493490662   542.4234   5   8   6.0743   3.5032   7.4450  -2.3651   0.6889   1.4556   0.00    0.0
2014/03/15 02:36:30.000   47.067145549   15.493490012   542.3904   5   8   6.0622   3.5061   7.4324  -2.3699   0.7852   1.4040   0.00    0.0
2014/03/15 02:37:00.000   47.067145386   15.493489487   542.3798   5   8   6.0501   3.5092   7.4199  -2.3746   0.8707   1.3507   0.00    0.0
2014/03/15 02:37:30.000   47.067145415   15.493489041   542.3691   5   8   6.0378   3.5124   7.4074  -2.3792   0.9481   1.2955   0.00    0.0
2014/03/15 02:38:00.000   47.067144947   15.493488746   542.3081   5   8   6.0255   3.5157   7.3950  -2.3839   1.0194   1.2382   0.00    0.0
2014/03/15 02:38:30.000   47.067144898   15.493488042   542.2951   5   8   6.0131   3.5191   7.3826  -2.3886   1.0858   1.1784   0.00    0.0
2014/03/15 02:39:00.000   47.067145196   15.493488003   542.3900   5   8   6.0006   3.5227   7.3702  -2.3932   1.1481   1.1159   0.00    0.0
2014/03/15 02:39:30.000   47.067145863   15.493487153   542.3975   5   8   5.9880   3.5263   7.3579  -2.3978   1.2070   1.0500   0.00    0.0
2014/03/15 02:40:00.000   47.067145643   15.493486945   542.4007   5   8   5.9754   3.5301   7.3457  -2.4024   1.2629   0.9802   0.00    0.0
2014/03/15 02:40:30.000   47.067145189   15.493487402   542.4522   5   8   5.9626   3.5340   7.3336  -2.4070   1.3161   0.9057   0.00    0.0
2014/03/15 02:41:00.000   47.067145412   15.493487650   542.3696   5   8   5.9499   3.5379   7.3215  -2.4116   1.3671   0.8250   0.00    0.0
2014/03/15 02:41:30.000   47.067145348   15.493487394   542.3893   5   8   5.9370   3.5420   7.3094  -2.4161   1.4161   0.7363   0.00    0.0
2014/03/15 02:42:00.000   47.067144740   15.493485778   542.5674   5   7   5.9242   4.8050   9.8245  -2.3953  -4.3802   0.3952   0.00    0.0
2014/03/15 02:42:30.000   47.067144844   15.493485364   542.5760   5   7   5.9112   4.7977   9.8000  -2.4051  -4.3444   0.2668   0.00    0.0
2014/03/15 02:43:00.000   47.067144878   15.493484975   542.4779   5   7   5.8982   4.7906   9.7754  -2.4148  -4.3083  -0.1189   0.00    0.0
2014/03/15 02:43:30.000   47.067144748   15.493484549   542.5133   5   7   5.8851   4.7836   9.7505  -2.4243  -4.2720  -0.3158   0.00    0.0
2014/03/15 02:44:00.000   47.067143668   15.493486055   542.3528   5   8   5.2987   3.6807   7.8104   1.3353  -0.5423  -3.8536   0.00    0.0
2014/03/15 02:44:30.000   47.067143596   15.493486367   542.3946   5   8   5.2874   3.6806   7.8196   1.3006  -0.4589  -3.8416   0.00    0.0
2014/03/15 02:45:00.000   47.067143159   15.493486017   542.4486   5   8   5.2761   3.6807   7.8287   1.2653  -0.3570  -3.8295   0.00    0.0
2014/03/15 02:45:30.000   47.067143141   15.493485692   542.4155   5   8   5.2649   3.6808   7.8375   1.2291  -0.2109  -3.8171   0.00    0.0
2014/03/15 02:46:00.000   47.067143052   15.493485745   542.4036   5   8   5.2537   3.6811   7.8461   1.1922   0.1954  -3.8047   0.00    0.0
2014/03/15 02:46:30.000   47.067142611   15.493486201   542.4274   5   8   5.2424   3.6815   7.8545   1.1544   0.3473  -3.7921   0.00    0.0
2014/03/15 02:47:00.000   47.067142521   15.493486834   542.4772   5   8   5.2313   3.6820   7.8627   1.1156   0.4502  -3.7793   0.00    0.0
2014/03/15 02:47:30.000   47.067142730   15.493486798   542.5310   5   8   5.2201   3.6826   7.8706   1.0757   0.5334  -3.7664   0.00    0.0
2014/03/15 02:48:00.000   47.067142176   15.493486527   542.5763   5   8   5.2090   3.6834   7.8783   1.0345   0.6051  -3.7534   0.00    0.0
2014/03/15 02:48:30.000   47.067142391   15.493485854   542.6313   5   8   5.1979   3.6842   7.8857   0.9920   0.6689  -3.7402   0.00    0.0
2014/03/15 02:49:00.000   47.067142674   15.493485771   542.6847   5   8   5.1868   3.6851   7.8929   0.9480   0.7268  -3.7269   0.00    0.0
2014/03/15 02:49:30.000   47.067143031   15.493485233   542.6291   5   8   5.1757   3.6862   7.8998   0.9021   0.7803  -3.7134   0.00    0.0
2014/03/15 02:50:00.000   47.067143473   15.493484702   542.5387   5   8   5.1647   3.6873   7.9065   0.8542   0.8302  -3.6999   0.00    0.0
2014/03/15 02:50:30.000   47.067143754   15.493484476   542.5526   5   8   5.1538   3.6886   7.9130   0.8037   0.8770  -3.6861   0.00    0.0
2014/03/15 02:51:00.000   47.067143818   15.493484933   542.5879   5   8   5.1428   3.6899   7.9191   0.7504   0.9213  -3.6723   0.00    0.0
2014/03/15 02:51:30.000   47.067143544   15.493485125   542.6721   5   8   5.1319   3.6914   7.9250   0.6933   0.9634  -3.6583   0.00    0.0
2014/03/15 02:52:00.000   47.067143438   15.493484617   542.6026   5   8   5.1211   3.6929   7.9307   0.6316   1.0035  -3.6442   0.00    0.0
2014/03/15 02:52:30.000   47.067142899   15.493484204   542.6249   5   8   5.1102   3.6946   7.9360   0.5638   1.0420  -3.6300   0.00    0.0
2014/03/15 02:53:00.000   47.067142751   15.493484069   542.6555   5   8   5.0995   3.6964   7.9411   0.4871   1.0788  -3.6156   0.00    0.0
2014/03/15 02:53:30.000   47.067142591   15.493484039   542.5863   5   8   5.0887   3.6982   7.9459   0.3967   1.1143  -3.6011   0.00    0.0
2014/03/15 02:54:00.000   47.067142617   15.493483909   542.5571   5   8   5.0780   3.7002   7.9505   0.2794   1.1486  -3.5866   0.00    0.0
2014/03/15 02:54:30.000   47.067142674   15.493483992   542.5191   5   8   5.0674   3.7023   7.9547  -0.0267   1.1817  -3.5719   0.00    0.0
2014/03/15 02:55:00.000   47.067142701   15.493483847   542.5167   5   8   5.0568   3.7044   7.9587  -0.2809   1.2137  -3.5571   0.00    0.0
2014/03/15 02:55:30.000   47.067142895   15.493483738   542.5533   5   8   5.0462   3.7067   7.9623  -0.3956   1.2447  -3.5421   0.00    0.0
2014/03/15 02:56:00.000   47.067142800   15.493484137   542.5773   5   8   5.0357   3.7090   7.9657  -0.4833   1.2748  -3.5271   0.00    0.0
2014/03/15 02:56:30.000   47.067142646   15.493483868   542.5633   5   8   5.0253   3.7115   7.9688  -0.5569   1.3041  -3.5120   0.00    0.0
2014/03/15 02:57:00.000   47.067142777   15.493483972   542.6193   5   8   5.0149   3.7141   7.9716  -0.6213   1.3326  -3.4968   0.00    0.0
2014/03/15 02:57:30.000   47.067143066   15.493484240   542.6942   5   8   5.0045   3.7167   7.9741  -0.6793   1.3603  -3.4815   0.00    0.0
2014/03/15 02:58:00.000   47.067143814   15.493484422   542.8375   5   9   4.6911   3.5891   7.5735  -1.4862  -0.7198  -4.0376   0.00    0.0
2014/03/15 02:58:30.000   47.067143866   15.493484067   542.8489   5   9   4.6824   3.5915   7.5781  -1.5103  -0.6649  -4.0208   0.00    0.0
2014/03/15 02:59:00.000   47.067143825   15.493484079   542.8410   5   9   4.6738   3.5939   7.5824  -1.5339  -0.6051  -4.0038   0.00    0.0
2014/03/15 02:59:30.000   47.067143941   15.493484064   542.8083   5   9   4.6652   3.5964   7.5866  -1.5569  -0.5389  -3.9866   0.00    0.0
2014/03/15 03:00:00.000   47.067145489   15.493484002   542.6281   5   9   4.6669   3.6027   7.7122  -1.5636  -0.6605  -4.0219   0.00    0.0
2014/03/15 03:00:30.000   47.067145337   15.493484423   542.6622   5   9   4.6586   3.6052   7.7164  -1.5861  -0.5980  -4.0050   0.00    0.0
2014/03/15 03:01:00.000   47.067145426   15.493484798   542.6923   5   9   4.6504   3.6079   7.7204  -1.6081  -0.5281  -3.9879   0.00    0.0
2014/03/15 03:01:30.000   47.067145215   15.493485412   542.6567   5   9   4.6423   3.6106   7.7242  -1.6297  -0.4475  -3.9707   0.00    0.0
2014/03/15 03:02:00.000   47.067145115   15.493485727   542.6331   5   9   4.6343   3.6134   7.7277  -1.6509  -0.3488  -3.9533   0.00    0.0
2014/03/15 03:02:30.000   47.067144682   15.493486192   542.6795   5   9   4.6263   3.6163   7.7310  -1.6717  -0.2075  -3.9357   0.00    0.0
2014/03/15 03:03:00.000   47.067144359   15.493486485   542.6971   5   9   4.6184   3.6193   7.7340  -1.6921   0.1883  -3.9180   0.00    0.0
2014/03/15 03:03:30.000   47.067144049   15.493486928   542.6883   5   9   4.6107   3.6223   7.7368  -1.7122   0.3376  -3.9002   0.00    0.0
2014/03/15 03:04:00.000   47.067143888   15.493487156   542.6325   5   9   4.6030   3.6255   7.7393  -1.7318   0.4387  -3.8822   0.00    0.0
2014/03/15 03:04:30.000   47.067143839   15.493487404   542.6055   5   9   4.5954   3.6287   7.7415  -1.7512   0.5204  -3.8641   0.00    0.0
2014/03/15 03:05:00.000   47.067143642   15.493487157   542.6356   5   9   4.5879   3.6320   7.7436  -1.7702   0.5910  -3.8458   0.00    0.0
2014/03/15 03:05:30.000   47.067143627   15.493487097   542.6476   5   9   4.5805   3.6354   7.7453  -1.7888   0.6539  -3.8274   0.00    0.0
2014/03/15 03:06:00.000   47.067143392   15.493486591   542.6079   5   9   4.5731   3.6389   7.7468  -1.8072   0.7113  -3.8088   0.00    0.0
2014/03/15 03:06:30.000   47.067143164   15.493486470   542.5980   5   9   4.5659   3.6424   7.7480  -1.8253   0.7643  -3.7902   0.00    0.0
2014/03/15 03:07:00.000   47.067143303   15.493486521   542.5747   5   9   4.5588   3.6461   7.7490  -1.8431   0.8139  -3.7714   0.00    0.0
2014/03/15 03:07:30.000   47.067143366   15.493486557   542.5675   5   9   4.5518   3.6498   7.7497  -1.8606   0.8607  -3.7525   0.00    0.0
2014/03/15 03:08:00.000   47.067142892   15.493487106   542.5369   5   9   4.5449   3.6536   7.7502  -1.8779   0.9049  -3.7334   0.00    0.0
2014/03/15 03:08:30.000   47.067143198   15.493487257   542.5111   5   9   4.5381   3.6575   7.7504  -1.8948   0.9472  -3.7143   0.00    0.0
2014/03/15 03:09:00.000   47.067143277   15.493487670   542.5666   5   9   4.5314   3.6614   7.7503  -1.9116   0.9875  -3.6951   0.00    0.0
2014/03/15 03:09:30.000   47.067143217   15.493487977   542.5551   5   9   4.5248   3.6654   7.7499  -1.9281   1.0263  -3.6757   0.00    0.0
2014/03/15 03:10:00.000   47.067143144   15.493488562   542.5232   5   9   4.5183   3.6696   7.7493  -1.9444   1.0637  -3.6563   0.00    0.0
2014/03/15 03:10:30.000   47.067142864   15.493488899   542.4946   5   9   4.5119   3.6738   7.7484  -1.9604   1.0998  -3.6368   0.00    0.0
2014/03/15 03:11:00.000   47.067143050   15.493488753   542.5069   5   9   4.5056   3.6780   7.7473  -1.9762   1.1347  -3.6172   0.00    0.0
2014/03/15 03:11:30.000   47.067143162   15.493488601   542.4840   5   9   4.4995   3.6824   7.7458  -1.9918   1.1686  -3.5975   0.00    0.0
2014/03/15 03:12:00.000   47.067143161   15.493488296   542.4570   5   9   4.4934   3.6868   7.7441  -2.0072   1.2016  -3.5777   0.00    0.0
2014/03/15 03:12:30.000   47.067143507   15.493488399   542.4214   5   9   4.4875   3.6913   7.7422  -2.0224   1.2336  -3.5579   0.00    0.0
2014/03/15 03:13:00.000   47.067143478   15.493488226   542.4337   5   9   4.4817   3.6959   7.7399  -2.0375   1.2648  -3.5380   0.00    0.0
2014/03/15 03:13:30.000   47.067143697   15.493488029   542.3440   5   9   4.4760   3.7006   7.7374  -2.0523   1.2953  -3.5180   0.00    0.0
2014/03/15 03:14:00.000   47.067143653   15.493488255   542.2303   5   9   4.4704   3.7054   7.7346  -2.0669   1.3251  -3.4980   0.00    0.0
2014/03/15 03:14:30.000   47.067143644   15.493488248   542.2839   5   9   4.4649   3.7102   7.7316  -2.0814   1.3542  -3.4780   0.00    0.0
2014/03/15 03:15:00.000   47.067143756   15.493488052   542.3012   5   9   4.4596   3.7151   7.7283  -2.0957   1.3827  -3.4579   0.00    0.0
2014/03/15 03:15:30.000   47.067144164   15.493487994   542.2998   5   9   4.4544   3.7201   7.7247  -2.1098   1.4107  -3.4378   0.00    0.0
2014/03/15 03:16:00.000   47.067144094   15.493487903   542.3301   5   9   4.4492   3.7252   7.7209  -2.1238   1.4381  -3.4176   0.00    0.0
2014/03/15 03:16:30.000   47.067146272   15.493484096   541.8483   5  10   4.1012   3.1900   6.9246  -1.1219  -2.1070  -2.3900   0.00    0.0
2014/03/15 03:17:00.000   47.067144503   15.493483854   541.6258   5   9   4.7795   3.1891   7.4169  -1.1420  -2.0928   0.9645   0.00    0.0
2014/03/15 03:17:30.000   47.067144406   15.493483654   541.5945   5   9   4.7786   3.1883   7.4479  -1.1620  -2.0787   1.1216   0.00    0.0
2014/03/15 03:18:00.000   47.067144748   15.493483473   541.6276   5   9   4.7780   3.1875   7.4795  -1.1813  -2.0643   1.2602   0.00    0.0
2014/03/15 03:18:30.000   47.067144702   15.493483615   541.5863   5   9   4.7777   3.1867   7.5118  -1.1998  -2.0496   1.3860   0.00    0.0
2014/03/15 03:19:00.000   47.067144821   15.493483417   541.5890   5   9   4.7778   3.1860   7.5449  -1.2176  -2.0346   1.5022   0.00    0.0
2014/03/15 03:19:30.000   47.067144665   15.493483433   541.5278   5   9   4.7782   3.1853   7.5786  -1.2347  -2.0191   1.6109   0.00    0.0
2014/03/15 03:20:00.000   47.067144621   15.493483760   541.4944   5   9   4.7789   3.1848   7.6130  -1.2512  -2.0033   1.7136   0.00    0.0
2014/03/15 03:20:30.000   47.067144300   15.493484090   541.4900   5   9   4.7799   3.1842   7.6481  -1.2669  -1.9870   1.8112   0.00    0.0
2014/03/15 03:21:00.000   47.067144201   15.493484097   541.4431   5   9   4.7812   3.1837   7.6839  -1.2821  -1.9702   1.9047   0.00    0.0
2014/03/15 03:21:30.000   47.067144156   15.493483969   541.4468   5   9   4.7829   3.1833   7.7204  -1.2966  -1.9530   1.9946   0.00    0.0
2014/03/15 03:22:00.000   47.067143807   15.493484274   541.4363   5   9   4.7849   3.1829   7.7575  -1.3105  -1.9352   2.0813   0.00    0.0
2014/03/15 03:22:30.000   47.067143831   15.493484212   541.3962   5   9   4.7872   3.1826   7.7954  -1.3238  -1.9168   2.1653   0.00    0.0
2014/03/15 03:23:00.000   47.067143944   15.493484294   541.3869   5   9   4.7898   3.1823   7.8340  -1.3366  -1.8978   2.2469   0.00    0.0
2014/03/15 03:23:30.000   47.067143588   15.493484024   541.3206   5   9   4.7927   3.1821   7.8733  -1.3487  -1.8781   2.3264   0.00    0.0
2014/03/15 03:24:00.000   47.067143314   15.493483943   541.2418   5   9   4.7959   3.1820   7.9133  -1.3603  -1.8578   2.4039   0.00    0.0
2014/03/15 03:24:30.000   47.067143328   15.493483768   541.1629   5   9   4.7994   3.1819   7.9539  -1.3714  -1.8366   2.4796   0.00    0.0
2014/03/15 03:25:00.000   47.067143155   15.493483599   541.1558   5   9   4.8033   3.1819   7.9953  -1.3818  -1.8147   2.5538   0.00    0.0
2014/03/15 03:25:30.000   47.067143434   15.493483091   541.1323   5   9   4.8074   3.1819   8.0373  -1.3917  -1.7919   2.6265   0.00    0.0
2014/03/15 03:26:00.000   47.067143411   15.493482700   541.0948   5   9   4.8118   3.1820   8.0800  -1.4011  -1.7681   2.6979   0.00    0.0
2014/03/15 03:26:30.000   47.067143533   15.493482072   541.0863   5   9   4.8165   3.1822   8.1234  -1.4099  -1.7434   2.7681   0.00    0.0
2014/03/15 03:27:00.000   47.067143551   15.493481532   541.0765   5   9   4.8215   3.1824   8.1674  -1.4181  -1.7175   2.8372   0.00    0.0
2014/03/15 03:27:30.000   47.067143412   15.493481537   541.0470   5   9   4.8268   3.1827   8.2121  -1.4258  -1.6905   2.9052   0.00    0.0
